FID,prov,prov_eng,prov_code,amphoe,name,area_km,pop,density,lat,lon
T1,กระบี่,Krabi,81,เกาะลันตา,เทศบาลตำบลโคกตะเคียน,0.81,1112,636,7.5301839,99.094742
T2,กระบี่,Krabi,81,เขาพนม,เทศบาลตำบล กม.5,12.92,4620,357.5851393,8.1734871,98.8907881
T3,กระบี่,Krabi,81,เมืองกระบี่,เทศบาลตำบล จ.ป.ร.,84,15915,189.4642857,8.1567783,98.9623547
T4,กระบี่,Krabi,81,เหนือคลอง,เทศบาลตำบลเกล็ดแก้ว,3.53,4315,1222.379603,8.097004,98.978312
T5,กระบี่,Krabi,81,คลองท่อม,เทศบาลตำบลเกวียนหัก,2.7,3837,1421.111111,7.9354523,99.1456523
T6,กระบี่,Krabi,81,คลองท่อม,เทศบาลตำบลเกษไชโย,7.65,2928,382.745098,7.8072601,99.2027637
T7,กระบี่,Krabi,81,คลองท่อม,เทศบาลตำบลเกษตรพัฒนา,166.29,10339,62.1745144,7.7516422,99.2619023
T8,กระบี่,Krabi,81,คลองท่อม,เทศบาลตำบลเกษตรวิสัย,183.36,16085,87.72360384,7.8337615,99.1719372
T9,กระบี่,Krabi,81,ปลายพระยา,เทศบาลตำบลเกษตรสมบูรณ์,12.5,5765,461.2,8.5327202,98.8637966
T10,กระบี่,Krabi,81,ลำทับ,เทศบาลตำบลเก้าเลี้ยว,8.11,3947,486.6831073,8.0805551,99.3230196
T11,กระบี่,Krabi,81,อ่าวลึก,เทศบาลตำบลเก่ากลอย,7,3939,562.7142857,8.2765229,98.6484177
T12,กระบี่,Krabi,81,อ่าวลึก,เทศบาลตำบลเกาะเต่า,8,5867,733.375,8.3779715,98.721102
T13,กาญจนบุรี,Kanchanaburi,71,เมืองกาญจนบุรี,เทศบาลตำบลเกาะเพชร,47.8,23124,483.7656904,14.0383041,99.5464227
T14,กาญจนบุรี,Kanchanaburi,71,เมืองกาญจนบุรี,เทศบาลตำบลเกาะแก้ว,11.65,5356,459.7424893,14.0622649,99.4854422
T15,กาญจนบุรี,Kanchanaburi,71,เมืองกาญจนบุรี,เทศบาลตำบลเกาะแต้ว,4.05,5678,1401.975309,14.102096,99.4221136
T16,กาญจนบุรี,Kanchanaburi,71,เมืองกาญจนบุรี,เทศบาลตำบลเกาะขนุน,8.5,5654,665.1764706,14.0601819,99.4566099
T17,กาญจนบุรี,Kanchanaburi,71,เมืองกาญจนบุรี,เทศบาลตำบลเกาะขวาง,26.25,10135,386.0952381,14.0373956,99.4821829
T18,กาญจนบุรี,Kanchanaburi,71,เลาขวัญ,เทศบาลตำบลเกาะคา,10.4,2634,253.2692308,14.5593582,99.7567161
T19,กาญจนบุรี,Kanchanaburi,71,เลาขวัญ,เทศบาลตำบลเกาะคาแม่ยาว,14.86,2151,144.7510094,14.6734675,99.6970557
T20,กาญจนบุรี,Kanchanaburi,71,ไทรโยค,เทศบาลตำบลเกาะจันทร์,4.4,3653,830.2272727,14.2196872,99.0757632
T21,กาญจนบุรี,Kanchanaburi,71,ไทรโยค,เทศบาลตำบลเกาะช้าง,5.2,1982,381.1538462,14.1159075,99.1479337
T22,กาญจนบุรี,Kanchanaburi,71,ไทรโยค,เทศบาลตำบลเกาะทวด,1201,7990,6.652789342,14.323436,99.033937
T23,กาญจนบุรี,Kanchanaburi,71,ด่านมะขาม,เทศบาลตำบลเกาะนางคำ,9.71,2557,263.3367662,13.851361,99.410204
T24,กาญจนบุรี,Kanchanaburi,71,ทองผาภูมิ,เทศบาลตำบลเกาะพะงัน,3.28,2675,815.5487805,14.7502869,98.6275134
T25,กาญจนบุรี,Kanchanaburi,71,ทองผาภูมิ,เทศบาลตำบลเกาะยาว,162,4857,29.98148148,14.6722002,98.7182391
T26,กาญจนบุรี,Kanchanaburi,71,ทองผาภูมิ,เทศบาลตำบลเกาะยาวใหญ่,416,13835,33.25721154,14.7485213,98.6293581
T27,กาญจนบุรี,Kanchanaburi,71,ทองผาภูมิ,เทศบาลตำบลเกาะลันตาใหญ่,253,6721,26.56521739,14.5624507,98.7603977
T28,กาญจนบุรี,Kanchanaburi,71,ท่าม่วง,เทศบาลตำบลเกาะสีชัง,1.53,10856,7095.424837,13.9769848,99.627976
T29,กาญจนบุรี,Kanchanaburi,71,ท่าม่วง,เทศบาลตำบลเกาะหวาย,5.904,1929,326.7276423,13.9161589,99.676006
T30,กาญจนบุรี,Kanchanaburi,71,ท่าม่วง,เทศบาลตำบลเขตรอุดมศักดิ์,0.84,5390,6416.666667,14.0485528,99.6289114
T31,กาญจนบุรี,Kanchanaburi,71,ท่าม่วง,เทศบาลตำบลเขมราฐ,12.7,2894,227.8740157,13.7866867,99.5662705
T32,กาญจนบุรี,Kanchanaburi,71,ท่าม่วง,เทศบาลตำบลเขวาสินรินทร์,27.95,8869,317.3166369,14.0033005,99.5700215
T33,กาญจนบุรี,Kanchanaburi,71,ท่าม่วง,เทศบาลตำบลเขาเจียก,42,11764,280.0952381,13.9902704,99.6938007
T34,กาญจนบุรี,Kanchanaburi,71,ท่าม่วง,เทศบาลตำบลเขาแก้ว,49,7956,162.3673469,13.9518171,99.6632341
T35,กาญจนบุรี,Kanchanaburi,71,ท่าม่วง,เทศบาลตำบลเขาแก้วศรีสมบูรณ์,28,5840,208.5714286,13.949251,99.6263885
T36,กาญจนบุรี,Kanchanaburi,71,ท่าม่วง,เทศบาลตำบลเขาโจด,63.16,3476,55.03483217,14.039065,99.5915403
T37,กาญจนบุรี,Kanchanaburi,71,ท่ามะกา,เทศบาลตำบลเขาขวาง,6.58,8154,1239.209726,13.9136149,99.7656226
T38,กาญจนบุรี,Kanchanaburi,71,ท่ามะกา,เทศบาลตำบลเขาคอก,17.71,9580,540.9373235,13.8976936,99.7972573
T39,กาญจนบุรี,Kanchanaburi,71,ท่ามะกา,เทศบาลตำบลเขาคีรีส,10.6,5961,562.3584906,13.9658984,99.7530977
T40,กาญจนบุรี,Kanchanaburi,71,ท่ามะกา,เทศบาลตำบลเขางู,3,4255,1418.333333,13.8709668,99.8180672
T41,กาญจนบุรี,Kanchanaburi,71,ท่ามะกา,เทศบาลตำบลเขาฉกรรจ์,3.63,4300,1184.573003,13.9130678,99.7558161
T42,กาญจนบุรี,Kanchanaburi,71,ท่ามะกา,เทศบาลตำบลเขาชัยสน,7,4244,606.2857143,13.8896083,99.8335677
T43,กาญจนบุรี,Kanchanaburi,71,ท่ามะกา,เทศบาลตำบลเขาชีจรรย์,19.8,4325,218.4343434,14.0444117,99.8148851
T44,กาญจนบุรี,Kanchanaburi,71,ท่ามะกา,เทศบาลตำบลเขาชุมทอง,20.6,3425,166.2621359,14.004867,99.7992075
T45,กาญจนบุรี,Kanchanaburi,71,บ่อพลอย,เทศบาลตำบลเขาดิน,4,7319,1829.75,14.3282477,99.5153383
T46,กาญจนบุรี,Kanchanaburi,71,บ่อพลอย,เทศบาลตำบลเขาทราย,5.008,2196,438.4984026,14.5247591,99.4649365
T47,กาญจนบุรี,Kanchanaburi,71,พนมทวน,เทศบาลตำบลเขาน้อย,5.8,5400,931.0344828,14.1314222,99.7028017
T48,กาญจนบุรี,Kanchanaburi,71,พนมทวน,เทศบาลตำบลเขานิพันธ์,14.42,4236,293.7586685,14.2218662,99.787844
T49,กาญจนบุรี,Kanchanaburi,71,พนมทวน,เทศบาลตำบลเขาบางแกรก,30,3501,116.7,14.0716698,99.7288412
T50,กาญจนบุรี,Kanchanaburi,71,พนมทวน,เทศบาลตำบลเขาบายศรี,54.21,7720,142.4091496,14.2218662,99.787844
T51,กาญจนบุรี,Kanchanaburi,71,พนมทวน,เทศบาลตำบลเขาพนม,23.81,4898,205.7118858,14.0611131,99.688452
T52,กาญจนบุรี,Kanchanaburi,71,ศรีสวัสดิ์,เทศบาลตำบลเขาพระ,16.45,1070,65.04559271,14.3852336,99.1350808
T53,กาญจนบุรี,Kanchanaburi,71,ศรีสวัสดิ์,เทศบาลตำบลเขาพระ,922,3928,4.260303688,14.662438,99.3425444
T54,กาญจนบุรี,Kanchanaburi,71,สังขละบุรี,เทศบาลตำบลเขาพระงาม,11.11,6249,562.4662466,15.1574365,98.4502794
T55,กาญจนบุรี,Kanchanaburi,71,หนองปรือ,เทศบาลตำบลเขาพระนอน,12.57,4554,362.2911695,14.6621135,99.4476568
T56,กาญจนบุรี,Kanchanaburi,71,หนองปรือ,เทศบาลตำบลเขาพระยาเดินธง,114,6214,54.50877193,14.6112206,99.5352385
T57,กาญจนบุรี,Kanchanaburi,71,หนองปรือ,เทศบาลตำบลเขาย้อย,104.74,6254,59.70975749,14.7835988,99.3288742
T58,กาญจนบุรี,Kanchanaburi,71,ห้วยกระเจา,เทศบาลตำบลเขาวัว-พลอยแหวน,230,9614,41.8,14.346606,99.611911
T59,กาญจนบุรี,Kanchanaburi,71,ห้วยกระเจา,เทศบาลตำบลเขาสมิง,125,7483,59.864,14.3440637,99.7513372
T60,กาฬสินธุ์,Kalasin,46,เขาวง,เทศบาลตำบลเขาสวนกวาง,16,2935,183.4375,16.7122965,104.0665572
T61,กาฬสินธุ์,Kalasin,46,เขาวง,เทศบาลตำบลเขาหัวช้าง,7.5,11347,1512.933333,16.6782595,104.073809
T62,กาฬสินธุ์,Kalasin,46,เขาวง,เทศบาลตำบลเขาหินซ้อน,52,7124,137,16.6439908,104.1168872
T63,กาฬสินธุ์,Kalasin,46,เขาวง,เทศบาลตำบลเขื่องใน,46.02,3577,77.72707518,16.6782595,104.073809
T64,กาฬสินธุ์,Kalasin,46,เมือง,เทศบาลตำบลเขื่อนบางลาง,31.31,4305,137.4960077,16.5803522,103.4702394
T65,กาฬสินธุ์,Kalasin,46,เมืองกาฬสินธุ์,เทศบาลตำบลเขื่อนอุบลรัตน์,51.98,8380,161.2158523,16.5333997,103.6142056
T66,กาฬสินธุ์,Kalasin,46,เมืองกาฬสินธุ์,เทศบาลตำบลเค็งใหญ่,45.85,7155,156.0523446,16.5582782,103.5108231
T67,กาฬสินธุ์,Kalasin,46,เมืองกาฬสินธุ์,เทศบาลตำบลเคียนซา,63.83,11687,183.095723,16.381209,103.5466146
T68,กาฬสินธุ์,Kalasin,46,เมืองกาฬสินธุ์,เทศบาลตำบลเจ็ดเสมียน,49.78,5756,115.6287666,16.640851,103.509213
T69,กาฬสินธุ์,Kalasin,46,เมืองกาฬสินธุ์,เทศบาลตำบลเจดีย์,36.65,6178,168.5675307,16.5129585,103.4799431
T70,กาฬสินธุ์,Kalasin,46,เมืองกาฬสินธุ์,เทศบาลตำบลเจดีย์แม่ครัว,46.16,4720,102.2530329,16.5880763,103.6170389
T71,กาฬสินธุ์,Kalasin,46,เมืองกาฬสินธุ์,เทศบาลตำบลเจดีย์หลวง,56.76,6474,114.0591966,16.6153865,103.5793971
T72,กาฬสินธุ์,Kalasin,46,เมืองกาฬสินธุ์,เทศบาลตำบลเจริญราษฎร์,31.4,6387,203.4076433,16.4777372,103.5532987
T73,กาฬสินธุ์,Kalasin,46,เมืองกาฬสินธุ์,เทศบาลตำบลเจริญศิลป์,52.2,9208,176.3984674,16.5001337,103.4649115
T74,กาฬสินธุ์,Kalasin,46,เมืองกาฬสินธุ์,เทศบาลตำบลเจ๊ะปิลัง,46.14,11290,244.6900737,16.3943261,103.5209382
T75,กาฬสินธุ์,Kalasin,46,เมืองกาฬสินธุ์,เทศบาลตำบลเจ้าเจ็ด,87.17,7158,82.11540668,16.4257638,103.6785686
T76,กาฬสินธุ์,Kalasin,46,เมืองกาฬสินธุ์,เทศบาลตำบลเจ้าพระยา,40.89,4734,115.7740279,16.5442166,103.6403143
T77,กาฬสินธุ์,Kalasin,46,เมืองกาฬสินธุ์,เทศบาลตำบลเฉลียงทอง,33.03,7990,241.9013018,16.4256276,103.5590839
T78,กาฬสินธุ์,Kalasin,46,เมืองกาฬสินธุ์,เทศบาลตำบลเชิงเนิน,42.6,4979,116.8779343,16.507176,103.575845
T79,กาฬสินธุ์,Kalasin,46,ดอนจาน,เทศบาลตำบลเชิงแส,48.31,7284,150.7762368,16.4258254,103.6785557
T80,กาฬสินธุ์,Kalasin,46,ดอนจาน,เทศบาลตำบลเชิงดอย,29.18,4430,151.8163125,16.477147,103.655099
T81,กาฬสินธุ์,Kalasin,46,กมลาไสย,เทศบาลตำบลเชิงทะเล,15.25,10092,661.7704918,16.3386481,103.5752341
T82,กาฬสินธุ์,Kalasin,46,กมลาไสย,เทศบาลตำบลเชียงเครือ,9,6330,703.3333333,16.2696034,103.5784012
T83,กาฬสินธุ์,Kalasin,46,กมลาไสย,เทศบาลตำบลเชียงเครือ,39.5,10523,266.4050633,16.260676,103.6466862
T84,กาฬสินธุ์,Kalasin,46,กมลาไสย,เทศบาลตำบลเชียงเคี่ยน,31.5,6905,219.2063492,16.2983894,103.4929182
T85,กาฬสินธุ์,Kalasin,46,กมลาไสย,เทศบาลตำบลเชียงเพ็ง,38.22,6033,157.8492936,16.3162341,103.5986555
T86,กาฬสินธุ์,Kalasin,46,นาคู,เทศบาลตำบลเชียงแหว,7.54,5511,730.9018568,16.7745557,104.0294361
T87,กาฬสินธุ์,Kalasin,46,นาคู,เทศบาลตำบลเชียงใหม่,42,4070,96.9047619,16.6741083,103.9640993
T88,กาฬสินธุ์,Kalasin,46,กุฉินารายณ์,เทศบาลตำบลเชียงกลม,4.2,5267,1254.047619,16.5174176,104.1241903
T89,กาฬสินธุ์,Kalasin,46,กุฉินารายณ์,เทศบาลตำบลเชียงกลาง,109,12745,116.9266055,16.5060949,103.9312585
T90,กาฬสินธุ์,Kalasin,46,กุฉินารายณ์,เทศบาลตำบลเชียงขวัญ,68,9385,138.0147059,16.4690336,104.0972658
T91,กาฬสินธุ์,Kalasin,46,กุฉินารายณ์,เทศบาลตำบลเชียงคาน,79,7215,91.32911392,16.6111733,104.0011784
T92,กาฬสินธุ์,Kalasin,46,คำม่วง,เทศบาลตำบลเชียงคำ,5.6,4078,728.2142857,16.92159,103.632945
T93,กาฬสินธุ์,Kalasin,46,คำม่วง,เทศบาลตำบลเชียงดาว,6.72,3897,579.9107143,16.8592144,103.6168957
T94,กาฬสินธุ์,Kalasin,46,คำม่วง,เทศบาลตำบลเชียงม่วน,94,13916,148.0425532,16.9694624,103.6233748
T95,กาฬสินธุ์,Kalasin,46,ฆ้องชัย,เทศบาลตำบลเชียงยืน,35,6834,195.2571429,16.25192,103.4682212
T96,กาฬสินธุ์,Kalasin,46,ท่าคันโท,เทศบาลตำบลเชียงรากน้อย,51.2,9245,180.5664063,16.9374639,103.2427923
T97,กาฬสินธุ์,Kalasin,46,ท่าคันโท,เทศบาลตำบลเชียงสือ,107.6,6980,64.86988848,16.8689574,103.2661672
T98,กาฬสินธุ์,Kalasin,46,ท่าคันโท,เทศบาลตำบลเชียรใหญ่,57,5533,97.07017544,16.9204895,103.1109533
T99,กาฬสินธุ์,Kalasin,46,ท่าคันโท,เทศบาลตำบลเด่นชัย,52,4661,89.63461538,16.8664796,103.3834625
T100,กาฬสินธุ์,Kalasin,46,ท่าคันโท,เทศบาลตำบลเดิด,70,6636,94.8,16.9091149,103.167324
T101,กาฬสินธุ์,Kalasin,46,นามน,เทศบาลตำบลเดิมบาง,12.01,6915,575.7701915,16.5765772,103.7885277
T102,กาฬสินธุ์,Kalasin,46,นามน,เทศบาลตำบลเตราะบอน,40.05,7797,194.6816479,16.629585,103.78057
T103,กาฬสินธุ์,Kalasin,46,ยางตลาด,เทศบาลตำบลเถินบุรี,10.86,3223,296.7771639,16.4025668,103.4353819
T104,กาฬสินธุ์,Kalasin,46,ยางตลาด,เทศบาลตำบลเทพกระษัตรี,11,9017,819.7272727,16.3915683,103.3352699
T105,กาฬสินธุ์,Kalasin,46,ยางตลาด,เทศบาลตำบลเทพนคร,83,13060,157.3493976,16.3852426,103.1878692
T106,กาฬสินธุ์,Kalasin,46,ยางตลาด,เทศบาลตำบลเทพราช,31,9055,292.0967742,16.4528937,103.264352
T107,กาฬสินธุ์,Kalasin,46,ยางตลาด,เทศบาลตำบลเทพวงศา,80,13351,166.8875,16.4534777,103.413124
T108,กาฬสินธุ์,Kalasin,46,ยางตลาด,เทศบาลตำบลเทพสถิต,32.15,5974,185.8164852,16.5612721,103.3803323
T109,กาฬสินธุ์,Kalasin,46,ยางตลาด,เทศบาลตำบลเทพา,47,7823,166.4468085,16.4782297,103.2312973
T110,กาฬสินธุ์,Kalasin,46,ยางตลาด,เทศบาลตำบลเทพาลัย,32,4787,149.59375,16.3856557,103.4724997
T111,กาฬสินธุ์,Kalasin,46,ร่องคำ,เทศบาลตำบลเนินกุ่ม,21.27,6084,286.0366714,16.2766583,103.7347091
T112,กาฬสินธุ์,Kalasin,46,สมเด็จ,เทศบาลตำบลเนินขาม,4.5,7639,1697.555556,16.6929482,103.7403574
T113,กาฬสินธุ์,Kalasin,46,สมเด็จ,เทศบาลตำบลเนินฆ้อ,23,6184,268.8695652,16.6875864,103.7926475
T114,กาฬสินธุ์,Kalasin,46,สมเด็จ,เทศบาลตำบลเนินปอ,103,7583,73.62135922,16.8054049,103.7264932
T115,กาฬสินธุ์,Kalasin,46,สมเด็จ,เทศบาลตำบลเนินพระ,62,7645,123.3064516,16.7589944,103.7837314
T116,กาฬสินธุ์,Kalasin,46,สมเด็จ,เทศบาลตำบลเนินมะกอก,92,4615,50.16304348,16.7970909,103.7563085
T117,กาฬสินธุ์,Kalasin,46,สหัสขันธ์,เทศบาลตำบลเนินมะปราง,7.5,5341,712.1333333,16.7122912,103.5180122
T118,กาฬสินธุ์,Kalasin,46,สหัสขันธ์,เทศบาลตำบลเนินสันติ,24,3447,143.625,16.6746671,103.5416593
T119,กาฬสินธุ์,Kalasin,46,สหัสขันธ์,เทศบาลตำบลเนินสูง,16.8,3069,182.6785714,16.6844525,103.495581
T120,กาฬสินธุ์,Kalasin,46,สหัสขันธ์,เทศบาลตำบลเบิกไพร,35.6,2739,76.93820225,16.7381484,103.5010105
T121,กาฬสินธุ์,Kalasin,46,สหัสขันธ์,เทศบาลตำบลเปือย,90,7782,86.46666667,16.6896536,103.6221748
T122,กาฬสินธุ์,Kalasin,46,สหัสขันธ์,เทศบาลตำบลเปือยน้อย,55,7934,144.2545455,16.8090826,103.5917401
T123,กาฬสินธุ์,Kalasin,46,หนองกุงศรี,เทศบาลตำบลเฝ้าไร่,13,9455,727.3076923,16.6522514,103.2960252
T124,กาฬสินธุ์,Kalasin,46,หนองกุงศรี,เทศบาลตำบลเพชรเมืองทอง,7.87,5517,701.0165184,16.8151141,103.3701352
T125,กาฬสินธุ์,Kalasin,46,หนองกุงศรี,เทศบาลตำบลเพชรพะงัน,42,4374,104.1428571,16.71993,103.393396
T126,กาฬสินธุ์,Kalasin,46,หนองกุงศรี,เทศบาลตำบลเพ็ญ,65,7102,109.2615385,16.71993,103.393396
T127,กาฬสินธุ์,Kalasin,46,หนองกุงศรี,เทศบาลตำบลเม็งราย,57,5448,95.57894737,16.7665609,103.4152274
T128,กาฬสินธุ์,Kalasin,46,หนองกุงศรี,เทศบาลตำบลเมยวดี,73.12,6959,95.17231947,16.78445,103.2963766
T129,กาฬสินธุ์,Kalasin,46,หนองกุงศรี,เทศบาลตำบลเมืองเก่า,61.09,8084,132.3293501,16.716773,103.2387091
T130,กาฬสินธุ์,Kalasin,46,ห้วยเม็ก,เทศบาลตำบลเมืองเก่า,10,5064,506.4,16.6548586,103.1934902
T131,กาฬสินธุ์,Kalasin,46,ห้วยเม็ก,เทศบาลตำบลเมืองเก่า,10.38,5886,567.0520231,16.6001955,103.2268744
T132,กาฬสินธุ์,Kalasin,46,ห้วยเม็ก,เทศบาลตำบลเมืองเก่า,38,5859,154.1842105,16.5347246,103.2056953
T133,กาฬสินธุ์,Kalasin,46,ห้วยเม็ก,เทศบาลตำบลเมืองเพีย,29,3726,128.4827586,16.5961269,103.2263257
T134,กาฬสินธุ์,Kalasin,46,ห้วยผึ้ง,เทศบาลตำบลเมืองเล็น,4.75,5999,1262.947368,16.6429355,103.903095
T135,กาฬสินธุ์,Kalasin,46,ห้วยผึ้ง,เทศบาลตำบลเมืองเวียง,152,10514,69.17105263,16.6559163,103.8423308
T136,กาฬสินธุ์,Kalasin,46,ห้วยผึ้ง,เทศบาลตำบลเมืองแก,36.66,4356,118.8216039,16.6075819,103.8724591
T137,กำแพงเพชร,Kamphaeng Phet,62,เมืองกำแพงเพชร,เทศบาลตำบลเมืองแกลง,85.52,9342,109.2376052,16.4910819,99.6870175
T138,กำแพงเพชร,Kamphaeng Phet,62,เมืองกำแพงเพชร,เทศบาลตำบลเมืองใหม่โคกกรวด,8.17,6131,750.4283966,16.3898137,99.52092
T139,กำแพงเพชร,Kamphaeng Phet,62,เมืองกำแพงเพชร,เทศบาลตำบลเมืองไพร,3.5,7251,2071.714286,16.4850951,99.4878728
T140,กำแพงเพชร,Kamphaeng Phet,62,เมืองกำแพงเพชร,เทศบาลตำบลเมืองการุ้ง,2.4,3678,1532.5,16.350241,99.5847643
T141,กำแพงเพชร,Kamphaeng Phet,62,เมืองกำแพงเพชร,เทศบาลตำบลเมืองขุขันธ์,178,20266,113.8539326,16.4062259,99.5346912
T142,กำแพงเพชร,Kamphaeng Phet,62,ไทรงาม,เทศบาลตำบลเมืองคง,5.1,5102,1000.392157,16.4671234,99.8897757
T143,กำแพงเพชร,Kamphaeng Phet,62,ขาณะวรลักษบุรี,เทศบาลตำบลเมืองคง,11.64,8565,735.8247423,16.23057,99.807004
T144,กำแพงเพชร,Kamphaeng Phet,62,ขาณะวรลักษบุรี,เทศบาลตำบลเมืองงาย,11.7,8698,743.4188034,16.0043318,99.8007173
T145,กำแพงเพชร,Kamphaeng Phet,62,คลองขลุง,เทศบาลตำบลเมืองจันทร์,2.7,2388,884.4444444,16.2210296,99.7173734
T146,กำแพงเพชร,Kamphaeng Phet,62,คลองขลุง,เทศบาลตำบลเมืองชุม,4,1606,401.5,16.2658443,99.6905259
T147,กำแพงเพชร,Kamphaeng Phet,62,คลองขลุง,เทศบาลตำบลเมืองทองท่าแร่,5.5,3910,710.9090909,16.2360821,99.7323411
T148,กำแพงเพชร,Kamphaeng Phet,62,คลองขลุง,เทศบาลตำบลเมืองที,84.68,5673,66.99338687,16.23057,99.807004
T149,กำแพงเพชร,Kamphaeng Phet,62,คลองลาน,เทศบาลตำบลเมืองนะ,334,23428,70.14371257,16.1219757,99.3295514
T150,กำแพงเพชร,Kamphaeng Phet,62,ทรายทองวัฒนา,เทศบาลตำบลเมืองบัว,90.8,8925,98.29295154,16.2882524,99.8256304
T151,กำแพงเพชร,Kamphaeng Phet,62,บึงสามัคคี,เทศบาลตำบลเมืองบางขลัง,50.31,7262,144.3450606,16.1538273,99.9383344
T152,กำแพงเพชร,Kamphaeng Phet,62,พรานกระต่าย,เทศบาลตำบลเมืองปาน,2.36,9288,3935.59322,16.6538172,99.5762962
T153,กำแพงเพชร,Kamphaeng Phet,62,พรานกระต่าย,เทศบาลตำบลเมืองพาน,44.09,5919,134.2481288,16.6646301,99.7171376
T154,กำแพงเพชร,Kamphaeng Phet,62,พรานกระต่าย,เทศบาลตำบลเมืองยวมใต้,103.2,6801,65.90116279,16.6647554,99.5889608
T155,กำแพงเพชร,Kamphaeng Phet,62,พรานกระต่าย,เทศบาลตำบลเมืองยาง,130,8066,62.04615385,16.6061827,99.6514786
T156,กำแพงเพชร,Kamphaeng Phet,62,ลานกระบือ,เทศบาลตำบลเมืองยาว,33.16,7629,230.066345,16.5406603,99.9719495
T157,กำแพงเพชร,Kamphaeng Phet,62,ลานกระบือ,เทศบาลตำบลเมืองรามันห์,45,5696,126.5777778,16.5656779,99.9245821
T158,กำแพงเพชร,Kamphaeng Phet,62,ลานกระบือ,เทศบาลตำบลเมืองศรีไค,8.5,4425,520.5882353,16.6007758,99.8490738
T159,ขอนแก่น,Khon Kaen,40,เขาสวนกวาง,เทศบาลตำบลเมืองสรวง,16.5,10675,646.969697,16.8477633,102.8572121
T160,ขอนแก่น,Khon Kaen,40,เปือยน้อย,เทศบาลตำบลเมืองหงส์,12.75,5960,467.4509804,15.879993,102.9032643
T161,ขอนแก่น,Khon Kaen,40,เมืองขอนแก่น,เทศบาลตำบลเรณูนคร,39.54,27163,686.975215,16.4019812,102.7879835
T162,ขอนแก่น,Khon Kaen,40,เมืองขอนแก่น,เทศบาลตำบลเลาขวัญ,33,7514,227.6969697,16.5129633,102.9388267
T163,ขอนแก่น,Khon Kaen,40,เมืองขอนแก่น,เทศบาลตำบลเลิงนกทา,35.88,9647,268.8684504,16.5791501,102.8428808
T164,ขอนแก่น,Khon Kaen,40,เมืองขอนแก่น,เทศบาลตำบลเวินพระบาท,46.9,9551,203.6460554,16.5261785,102.8346087
T165,ขอนแก่น,Khon Kaen,40,เมืองขอนแก่น,เทศบาลตำบลเวียง,8,9144,1143,16.2960043,102.7939759
T166,ขอนแก่น,Khon Kaen,40,เมืองขอนแก่น,เทศบาลตำบลเวียง,45,36625,813.8888889,16.434559,102.7725103
T167,ขอนแก่น,Khon Kaen,40,เมืองขอนแก่น,เทศบาลตำบลเวียง,90.55,17981,198.5753727,16.5109809,102.6954479
T168,ขอนแก่น,Khon Kaen,40,เมืองขอนแก่น,เทศบาลตำบลเวียง,122,15650,128.2786885,16.5440448,102.7596671
T169,ขอนแก่น,Khon Kaen,40,เมืองขอนแก่น,เทศบาลตำบลเวียงเชียงแสน,40,21447,536.175,16.4058169,102.8860016
T170,ขอนแก่น,Khon Kaen,40,เมืองขอนแก่น,เทศบาลตำบลเวียงเชียงของ,41.23,7379,178.9716226,16.437876,102.94496
T171,ขอนแก่น,Khon Kaen,40,แวงใหญ่,เทศบาลตำบลเวียงเทิง,26.7,5163,193.3707865,15.9595149,102.5355393
T172,ขอนแก่น,Khon Kaen,40,แวงน้อย,เทศบาลตำบลเวียงเหนือ,2.87,3108,1082.926829,15.8101846,102.4265952
T173,ขอนแก่น,Khon Kaen,40,แวงน้อย,เทศบาลตำบลเวียงกาหลง,59.51,9227,155.0495715,15.8536451,102.4724537
T174,ขอนแก่น,Khon Kaen,40,โคกโพธิ์ไชย,เทศบาลตำบลเวียงคำ,73.46,7140,97.19575279,16.019161,102.4036729
T175,ขอนแก่น,Khon Kaen,40,โคกโพธิ์ไชย,เทศบาลตำบลเวียงคุก,10.14,4168,411.0453649,16.1128693,102.3807553
T176,ขอนแก่น,Khon Kaen,40,โคกโพธิ์ไชย,เทศบาลตำบลเวียงชัย,52,4573,87.94230769,16.1088334,102.4495221
T177,ขอนแก่น,Khon Kaen,40,โคกโพธิ์ไชย,เทศบาลตำบลเวียงต้า,24.87,3020,121.4314435,16.0856625,102.3852774
T178,ขอนแก่น,Khon Kaen,40,เปือยน้อย,เทศบาลตำบลเวียงป่าเป้า,36.69,2086,56.85472881,15.8576536,102.8917556
T179,ขอนแก่น,Khon Kaen,40,โนนศิลา,เทศบาลตำบลเวียงฝาง,16,5480,342.5,15.9617657,102.6908489
T180,ขอนแก่น,Khon Kaen,40,กระนวน,เทศบาลตำบลเวียงพร้าว,47.37,6276,132.488917,16.713987,103.0316845
T181,ขอนแก่น,Khon Kaen,40,กระนวน,เทศบาลตำบลเวียงพางคำ,33.38,5984,179.2690234,16.8499679,103.0768392
T182,ขอนแก่น,Khon Kaen,40,กระนวน,เทศบาลตำบลเวียงมอก,24.15,4814,199.3374741,16.6805416,103.1311999
T183,ขอนแก่น,Khon Kaen,40,เขาสวนกวาง,เทศบาลตำบลเวียงยอง,57.32,5806,101.2909979,17.0006128,102.7605189
T184,ขอนแก่น,Khon Kaen,40,ชนบท,เทศบาลตำบลเวียงลอ,3.51,8451,2407.692308,16.0891712,102.6204029
T185,ขอนแก่น,Khon Kaen,40,ชนบท,เทศบาลตำบลเวียงสรวย,26,4140,159.2307692,16.090867,102.614858
T186,ขอนแก่น,Khon Kaen,40,ชุมแพ,เทศบาลตำบลเวียงสระ,6.67,4430,664.167916,16.5662121,102.0205752
T187,ขอนแก่น,Khon Kaen,40,ชุมแพ,เทศบาลตำบลเวียงสา,5.075,4834,952.5123153,16.616523,101.9996766
T188,ขอนแก่น,Khon Kaen,40,ชุมแพ,เทศบาลตำบลเสนางคนิคม,27.25,6627,243.1926606,16.5678585,102.2787451
T189,ขอนแก่น,Khon Kaen,40,ชุมแพ,เทศบาลตำบลเสม็ด,26.6,9954,374.2105263,16.5788389,102.110599
T190,ขอนแก่น,Khon Kaen,40,ชุมแพ,เทศบาลตำบลเสริมงาม,33.92,8633,254.5106132,16.4743671,102.2744157
T191,ขอนแก่น,Khon Kaen,40,ชุมแพ,เทศบาลตำบลเสริมซ้าย,15,6597,439.8,16.5662121,102.0205752
T192,ขอนแก่น,Khon Kaen,40,ซำสูง,เทศบาลตำบลเสลภูมิ,32.94,5288,160.5343048,16.5414779,103.0796208
T193,ขอนแก่น,Khon Kaen,40,น้ำพอง,เทศบาลตำบลเสาไห้,4,5512,1378,16.7411123,102.8303894
T194,ขอนแก่น,Khon Kaen,40,น้ำพอง,เทศบาลตำบลเสาธงหิน,72,8387,116.4861111,16.6812693,102.8431949
T195,ขอนแก่น,Khon Kaen,40,น้ำพอง,เทศบาลตำบลเสิงสาง,9.48,6672,703.7974684,16.70304,102.856412
T196,ขอนแก่น,Khon Kaen,40,น้ำพอง,เทศบาลตำบลเสือโฮก,48,7937,165.3541667,16.6981456,102.7846544
T197,ขอนแก่น,Khon Kaen,40,น้ำพอง,เทศบาลตำบลเหนือ,82.5,9669,117.2,16.7996222,102.7734635
T198,ขอนแก่น,Khon Kaen,40,น้ำพอง,เทศบาลตำบลเหนือคลอง,85.2,9728,114.1784038,16.6739492,102.8064695
T199,ขอนแก่น,Khon Kaen,40,บ้านแฮด,เทศบาลตำบลเหมือง,8.51,6795,798.4723854,16.2110402,102.7612901
T200,ขอนแก่น,Khon Kaen,40,บ้านแฮด,เทศบาลตำบลเหมืองแก้ว,51.75,9051,174.8985507,16.1861448,102.7020218
T201,ขอนแก่น,Khon Kaen,40,บ้านแฮด,เทศบาลตำบลเหมืองใหม่,59.33,2341,39.45727288,16.204734,102.764999
T202,ขอนแก่น,Khon Kaen,40,บ้านไผ่,เทศบาลตำบลเหมืองง่า,58,8849,152.5689655,16.0585357,102.7292711
T203,ขอนแก่น,Khon Kaen,40,บ้านฝาง,เทศบาลตำบลเหมืองจี้,4,4717,1179.25,16.4716509,102.6391365
T204,ขอนแก่น,Khon Kaen,40,บ้านฝาง,เทศบาลตำบลเหล่าเสือโก้ก,42.33,6254,147.7439168,16.356174,102.564336
T205,ขอนแก่น,Khon Kaen,40,บ้านฝาง,เทศบาลตำบลเหล่าใหญ่,36.64,6176,168.558952,16.4136217,102.5899218
T206,ขอนแก่น,Khon Kaen,40,บ้านฝาง,เทศบาลตำบลเหล่าปอแดง,47,5682,120.893617,16.458115,102.5986597
T207,ขอนแก่น,Khon Kaen,40,บ้านฝาง,เทศบาลตำบลเอราวัณ,56.55,7204,127.3916888,16.4733521,102.5986901
T208,ขอนแก่น,Khon Kaen,40,บ้านฝาง,เทศบาลตำบลเอราวัณ,45,5994,133.2,16.4716509,102.6391365
T209,ขอนแก่น,Khon Kaen,40,พระยืน,เทศบาลตำบลแก่งเสี้ยน,27.39,6594,240.7447974,16.276109,102.735544
T210,ขอนแก่น,Khon Kaen,40,พระยืน,เทศบาลตำบลแก่งเสือเต้น,4,3242,810.5,16.3372104,102.6607246
T211,ขอนแก่น,Khon Kaen,40,พระยืน,เทศบาลตำบลแก้งคร้อ,19.83,4298,216.7423096,16.270725,102.6896
T212,ขอนแก่น,Khon Kaen,40,พระยืน,เทศบาลตำบลแกดำ,94,9552,101.6170213,16.3251992,102.6094726
T213,ขอนแก่น,Khon Kaen,40,ภูเวียง,เทศบาลตำบลแก่นฝาง,1.13,3326,2943.362832,16.6559189,102.376365
T214,ขอนแก่น,Khon Kaen,40,ภูผาม่าน,เทศบาลตำบลแกลง-กะเฉด,6.09,3501,574.8768473,16.6401692,101.9090201
T215,ขอนแก่น,Khon Kaen,40,ภูผาม่าน,เทศบาลตำบลแคน,17,2364,139.0588235,16.6444508,101.950588
T216,ขอนแก่น,Khon Kaen,40,มัญจาคีรี,เทศบาลตำบลแคนดง,2.86,4206,1470.629371,16.1270537,102.5441068
T217,ขอนแก่น,Khon Kaen,40,มัญจาคีรี,เทศบาลตำบลแคมป์สน,65.6,9665,147.3323171,16.1639703,102.5071383
T218,ขอนแก่น,Khon Kaen,40,สีชมพู,เทศบาลตำบลแคราย,3,3932,1310.666667,16.8011317,102.1868749
T219,ขอนแก่น,Khon Kaen,40,สีชมพู,เทศบาลตำบลแจ้ห่ม,34.2,7673,224.3567251,16.7979661,102.1785023
T220,ขอนแก่น,Khon Kaen,40,สีชมพู,เทศบาลตำบลแชแล,77,10001,129.8831169,16.6585319,102.1518372
T221,ขอนแก่น,Khon Kaen,40,หนองเรือ,เทศบาลตำบลแซงบาดาล,6.03,3592,595.6882255,16.485583,102.5435531
T222,ขอนแก่น,Khon Kaen,40,หนองเรือ,เทศบาลตำบลแซะ,2.5,1639,655.6,16.5117021,102.306104
T223,ขอนแก่น,Khon Kaen,40,หนองเรือ,เทศบาลตำบลแต้,4,4379,1094.75,16.4922874,102.4327122
T224,ขอนแก่น,Khon Kaen,40,หนองเรือ,เทศบาลตำบลแปลงยาว,99.48,11836,118.9786892,16.5288545,102.4092112
T225,ขอนแก่น,Khon Kaen,40,หนองเรือ,เทศบาลตำบลแพด,132.42,9507,71.79429089,16.5050568,102.3190323
T226,ขอนแก่น,Khon Kaen,40,หนองเรือ,เทศบาลตำบลแพรกศรีราชา,78.8,7933,100.6725888,16.5067086,102.3189131
T227,ขอนแก่น,Khon Kaen,40,หนองเรือ,เทศบาลตำบลแพรกษา,49,9374,191.3061224,16.4128843,102.5376307
T228,ขอนแก่น,Khon Kaen,40,หนองเรือ,เทศบาลตำบลแพรกหา,32,5801,181.28125,16.531832,102.5473206
T229,ขอนแก่น,Khon Kaen,40,หนองสองห้อง,เทศบาลตำบลแม่เงิน,3,6267,2089,15.7358717,102.7909471
T230,ขอนแก่น,Khon Kaen,40,อุบลรัตน์,เทศบาลตำบลแม่เมาะ,8.4,4154,494.5238095,16.7221007,102.6331035
T231,ขอนแก่น,Khon Kaen,40,อุบลรัตน์,เทศบาลตำบลแม่แจ่ม,91,8689,95.48351648,16.679422,102.7162172
T232,ขอนแก่น,Khon Kaen,40,อุบลรัตน์,เทศบาลตำบลแม่แตง,83,6625,79.81927711,16.852858,102.675932
T233,ขอนแก่น,Khon Kaen,40,เวียงเก่า,เทศบาลตำบลแม่แฝก,61.53,8904,144.7098976,16.7089808,102.2776838
T234,ขอนแก่น,Khon Kaen,40,หนองนาคำ,เทศบาลตำบลแม่แรง,309.79,6863,22.15371703,16.7846446,102.3819413
T235,ขอนแก่น,Khon Kaen,40,หนองนาคำ,เทศบาลตำบลแม่แรม,31.8,5006,157.4213836,16.8018982,102.3403211
T236,จันทบุรี,Chanthaburi,22,เขาคิชฌฏูฏ,เทศบาลตำบลแม่โป่ง,217,4317,19.89400922,12.9126603,102.0809347
T237,จันทบุรี,Chanthaburi,22,เขาคิชฌฏูฏ,เทศบาลตำบลแม่ใจ,86.56,4200,48.52125693,12.7625216,102.0893836
T238,จันทบุรี,Chanthaburi,22,เขาคิชฌฏูฏ,เทศบาลตำบลแม่ไร่,103,6934,67.32038835,12.8053231,102.1145189
T239,จันทบุรี,Chanthaburi,22,เขาคิชฌฏูฏ,เทศบาลตำบลแม่กลอง,225,5583,24.81333333,13.0030423,102.0515326
T240,จันทบุรี,Chanthaburi,22,เขาคิชฌฏูฏ,เทศบาลตำบลแม่กา,134,6151,45.90298507,12.9353205,102.0582072
T241,จันทบุรี,Chanthaburi,22,เมืองจันทบุรี,เทศบาลตำบลแม่กุ,22.88,13586,593.7937063,12.5655912,102.107443
T242,จันทบุรี,Chanthaburi,22,เมืองจันทบุรี,เทศบาลตำบลแม่ขรี,9,4906,545.1111111,12.5769468,102.0658395
T243,จันทบุรี,Chanthaburi,22,เมืองจันทบุรี,เทศบาลตำบลแม่ขะจาน,42.84,4926,114.9859944,12.6648258,102.1321048
T244,จันทบุรี,Chanthaburi,22,เมืองจันทบุรี,เทศบาลตำบลแม่ข่า,12.9,10315,799.6124031,12.5995172,102.1360855
T245,จันทบุรี,Chanthaburi,22,เมืองจันทบุรี,เทศบาลตำบลแม่คำ,2.4,2455,1022.916667,12.5347191,102.1181989
T246,จันทบุรี,Chanthaburi,22,เมืองจันทบุรี,เทศบาลตำบลแม่คำมี,23.2,5988,258.1034483,12.6190478,102.1588605
T247,จันทบุรี,Chanthaburi,22,เมืองจันทบุรี,เทศบาลตำบลแม่คือ,15.64,10185,651.2148338,12.5852064,102.0676518
T248,จันทบุรี,Chanthaburi,22,แก่งหางแมว,เทศบาลตำบลแม่จะเรา,388.32,10342,26.63267408,12.9909915,101.7907182
T249,จันทบุรี,Chanthaburi,22,แหลมสิงห์,เทศบาลตำบลแม่จัน,37.93,9043,238.4128658,12.4718283,102.0938337
T250,จันทบุรี,Chanthaburi,22,แหลมสิงห์,เทศบาลตำบลแม่จัน,26.45,7015,265.2173913,12.4917293,102.1422042
T251,จันทบุรี,Chanthaburi,22,โป่งน้ำร้อน,เทศบาลตำบลแม่จั๊ว,69,8880,128.6956522,12.9056043,102.266397
T252,จันทบุรี,Chanthaburi,22,โป่งน้ำร้อน,เทศบาลตำบลแม่ต้าน,128.24,9171,71.5143481,13.0423782,102.3859348
T253,จันทบุรี,Chanthaburi,22,โป่งน้ำร้อน,เทศบาลตำบลแม่ตาว,193.5,4649,24.02583979,12.9326702,102.4732034
T254,จันทบุรี,Chanthaburi,22,โป่งน้ำร้อน,เทศบาลตำบลแม่ตืน,236.12,5845,24.75436219,12.9056043,102.266397
T255,จันทบุรี,Chanthaburi,22,ขลุง,เทศบาลตำบลแม่ทะ,275.72,4266,15.47221819,12.6708552,102.324901
T256,จันทบุรี,Chanthaburi,22,ขลุง,เทศบาลตำบลแม่ท่าช้าง,41.52,4577,110.2360308,12.4658437,102.1964915
T257,จันทบุรี,Chanthaburi,22,ขลุง,เทศบาลตำบลแม่นะ,85.75,4041,47.12536443,12.6079994,102.3256422
T258,จันทบุรี,Chanthaburi,22,ขลุง,เทศบาลตำบลแม่ปั๋ง,85.1,7002,82.27967098,12.4199789,102.3227623
T259,จันทบุรี,Chanthaburi,22,ขลุง,เทศบาลตำบลแม่ปาน,26.85,5475,203.9106145,12.4570357,102.2609147
T260,จันทบุรี,Chanthaburi,22,ขลุง,เทศบาลตำบลแม่ปืม,50.2,4998,99.56175299,12.4886796,102.2662372
T261,จันทบุรี,Chanthaburi,22,นายายอาม,เทศบาลตำบลแม่ปุ,11.15,3602,323.0493274,12.7710042,101.8528283
T262,จันทบุรี,Chanthaburi,22,นายายอาม,เทศบาลตำบลแม่ปูคา,50,4742,94.84,12.7195954,101.8123982
T263,จันทบุรี,Chanthaburi,22,นายายอาม,เทศบาลตำบลแม่พริก,50,4401,88.02,12.620289,101.891431
T264,จันทบุรี,Chanthaburi,22,ท่าใหม่,เทศบาลตำบลแม่มอก,8.95,3007,335.9776536,12.6477314,102.0327457
T265,จันทบุรี,Chanthaburi,22,ท่าใหม่,เทศบาลตำบลแม่ยม,17.25,3972,230.2608696,12.7228748,101.967523
T266,จันทบุรี,Chanthaburi,22,ท่าใหม่,เทศบาลตำบลแม่ยวม,62.3,6073,97.47993579,12.7345503,102.0556595
T267,จันทบุรี,Chanthaburi,22,ท่าใหม่,เทศบาลตำบลแม่ยาว,26.5,3510,132.4528302,12.6322806,102.0403995
T268,จันทบุรี,Chanthaburi,22,ท่าใหม่,เทศบาลตำบลแม่ระมาด,74.1,7382,99.62213225,12.6872185,101.9974338
T269,จันทบุรี,Chanthaburi,22,มะขาม,เทศบาลตำบลแม่ริม,0.75,1903,2537.333333,12.6737715,102.1965271
T270,จันทบุรี,Chanthaburi,22,มะขาม,เทศบาลตำบลแม่ลานนา,62.7,5221,83.26953748,12.663323,102.210373
T271,จันทบุรี,Chanthaburi,22,มะขาม,เทศบาลตำบลแม่ลาน้อย,83.75,5781,69.02686567,12.6826706,102.1968
T272,จันทบุรี,Chanthaburi,22,มะขาม,เทศบาลตำบลแม่ลาว,86.5,4155,48.03468208,12.7638281,102.2316965
T273,จันทบุรี,Chanthaburi,22,มะขาม,เทศบาลตำบลแม่วาง,58,4150,71.55172414,12.7304858,102.1398412
T274,จันทบุรี,Chanthaburi,22,มะขาม,เทศบาลตำบลแม่สรวย,33.52,2428,72.43436754,12.6719767,102.1551909
T275,จันทบุรี,Chanthaburi,22,มะขาม,เทศบาลตำบลแม่สอย,210,7261,34.57619048,12.7420302,102.2321401
T276,จันทบุรี,Chanthaburi,22,สอยดาว,เทศบาลตำบลแม่สะเรียง,38,11073,291.3947368,13.1364792,102.2254075
T277,จันทบุรี,Chanthaburi,22,สอยดาว,เทศบาลตำบลแม่สาย,222.5,16122,72.45842697,13.2340115,102.1873694
T278,ฉะเชิงเทรา,Chachoengsao,24,เมืองฉะเชิงเทรา,เทศบาลตำบลแม่สายมิตรภาพ,1.5,1590,1060,13.770557,100.987477
T279,ฉะเชิงเทรา,Chachoengsao,24,แปลงยาว,เทศบาลตำบลแม่หล่าย,3.78,2943,778.5714286,13.5878757,101.2878611
T280,ฉะเชิงเทรา,Chachoengsao,24,แปลงยาว,เทศบาลตำบลแม่หอพระ,7.03,5383,765.7183499,13.6118822,101.2449818
T281,ฉะเชิงเทรา,Chachoengsao,24,แปลงยาว,เทศบาลตำบลแม่อาย,8.88,6103,687.2747748,13.636585,101.3009077
T282,ฉะเชิงเทรา,Chachoengsao,24,แปลงยาว,เทศบาลตำบลแม่ฮ้อยเงิน,40.61,8443,207.904457,13.5731332,101.2932409
T283,ฉะเชิงเทรา,Chachoengsao,24,บางคล้า,เทศบาลตำบลแร่,6.53,9102,1393.874426,13.7245608,101.2098797
T284,ฉะเชิงเทรา,Chachoengsao,24,บางคล้า,เทศบาลตำบลแวง,25.83,5477,212.0402633,13.7446615,101.2160329
T285,ฉะเชิงเทรา,Chachoengsao,24,บางน้ำเปรี้ยว,เทศบาลตำบลแว้ง,0.39,1762,4517.948718,13.8962562,100.9523385
T286,ฉะเชิงเทรา,Chachoengsao,24,บางน้ำเปรี้ยว,เทศบาลตำบลแวงใหญ่,5.8,2237,385.6896552,13.8551601,101.1048864
T287,ฉะเชิงเทรา,Chachoengsao,24,บางน้ำเปรี้ยว,เทศบาลตำบลแวงน้อย,1.65,2462,1492.121212,13.8453869,101.0512295
T288,ฉะเชิงเทรา,Chachoengsao,24,บางน้ำเปรี้ยว,เทศบาลตำบลแวงน่าง,4.72,1524,322.8813559,13.823386,100.93932
T289,ฉะเชิงเทรา,Chachoengsao,24,บางน้ำเปรี้ยว,เทศบาลตำบลแสงสว่าง,67.35,8386,124.5137342,13.9222596,101.0314595
T290,ฉะเชิงเทรา,Chachoengsao,24,บางน้ำเปรี้ยว,เทศบาลตำบลแสนไห,26.6,3212,120.7518797,13.8578673,101.118956
T291,ฉะเชิงเทรา,Chachoengsao,24,บางปะกง,เทศบาลตำบลแสนตุ้ง,16.2,3373,208.2098765,13.60161,100.9326415
T292,ฉะเชิงเทรา,Chachoengsao,24,บางปะกง,เทศบาลตำบลแสนภูดาษ,29.5,11048,374.5084746,13.55102,100.9647918
T293,ฉะเชิงเทรา,Chachoengsao,24,บางปะกง,เทศบาลตำบลแสนสุข,20.22,7785,385.0148368,13.4789161,100.9941254
T294,ฉะเชิงเทรา,Chachoengsao,24,บางปะกง,เทศบาลตำบลแสลง,1.05,3319,3160.952381,13.5452676,100.985484
T295,ฉะเชิงเทรา,Chachoengsao,24,บางปะกง,เทศบาลตำบลแสลงโทน,1.3,6903,5310,13.5050641,100.9566305
T296,ฉะเชิงเทรา,Chachoengsao,24,บางปะกง,เทศบาลตำบลแสลงพัน,2.5,3650,1460,13.540292,100.9634679
T297,ฉะเชิงเทรา,Chachoengsao,24,บางปะกง,เทศบาลตำบลแสวงหา,0.62,1399,2256.451613,13.5649,100.920324
T298,ฉะเชิงเทรา,Chachoengsao,24,บางปะกง,เทศบาลตำบลแหลมโตนด,9.67,2163,223.6814891,13.5321533,101.0433985
T299,ฉะเชิงเทรา,Chachoengsao,24,บางปะกง,เทศบาลตำบลแหลมงอบ,34.8,7795,223.9942529,13.5050641,100.9566305
T300,ฉะเชิงเทรา,Chachoengsao,24,บางปะกง,เทศบาลตำบลแหลมทอง,25.13,11443,455.3521687,13.5483932,100.945642
T301,ฉะเชิงเทรา,Chachoengsao,24,บ้านโพธิ์,เทศบาลตำบลแหลมฟ้าผ่า,2.97,4776,1608.080808,13.6612809,100.9565355
T302,ฉะเชิงเทรา,Chachoengsao,24,บ้านโพธิ์,เทศบาลตำบลแหลมสัก,7.17,2835,395.3974895,13.5990213,101.0853202
T303,ฉะเชิงเทรา,Chachoengsao,24,บ้านโพธิ์,เทศบาลตำบลโกตาบารู,9.17,3626,395.4198473,13.5995671,101.0372194
T304,ฉะเชิงเทรา,Chachoengsao,24,บ้านโพธิ์,เทศบาลตำบลโกรกแก้ว,11.42,4025,352.4518389,13.5928927,101.0148383
T305,ฉะเชิงเทรา,Chachoengsao,24,พนมสารคาม,เทศบาลตำบลโกรกพระ,3.6,2387,663.0555556,13.7228528,101.3830567
T306,ฉะเชิงเทรา,Chachoengsao,24,พนมสารคาม,เทศบาลตำบลโกสุมพิสัย,12.59,3466,275.2978554,13.7663855,101.5172037
T307,ฉะเชิงเทรา,Chachoengsao,24,พนมสารคาม,เทศบาลตำบลโคกเหล็ก,2.16,7076,3275.925926,13.743662,101.35232
T308,ฉะเชิงเทรา,Chachoengsao,24,พนมสารคาม,เทศบาลตำบลโคกโพธิ์,68.89,9980,144.8686312,13.8159926,101.4164226
T309,ฉะเชิงเทรา,Chachoengsao,24,พนมสารคาม,เทศบาลตำบลโคกกกม่วง,28.74,8031,279.4363257,13.7247767,101.3523394
T310,ฉะเชิงเทรา,Chachoengsao,24,สนามชัยเขต,เทศบาลตำบลโคกก่ง,5,4270,854,13.65979,101.447775
T311,ชลบุรี,Chon Buri,20,เกาะสีชัง,เทศบาลตำบลโคกกรวด,36.44,4781,131.2019759,13.163864,100.8079062
T312,ชลบุรี,Chon Buri,20,เมืองชลบุรี,เทศบาลตำบลโคกกลอย,19.5,4081,209.2820513,13.4472277,100.9935074
T313,ชลบุรี,Chon Buri,20,เมืองชลบุรี,เทศบาลตำบลโคกกลาง,12.5,12655,1012.4,13.384721,100.985621
T314,ชลบุรี,Chon Buri,20,เมืองชลบุรี,เทศบาลตำบลโคกก่อง,18.5,9901,535.1891892,13.4291963,101.0380269
T315,ชลบุรี,Chon Buri,20,เมืองชลบุรี,เทศบาลตำบลโคกคราม,12.5,20192,1615.36,13.3418761,100.9438627
T316,ชลบุรี,Chon Buri,20,เมืองชลบุรี,เทศบาลตำบลโคกงาม,6.7,11500,1716.41791,13.4095119,101.0011077
T317,ชลบุรี,Chon Buri,20,เมืองชลบุรี,เทศบาลตำบลโคกจาน,18.3,32055,1751.639344,13.3866049,101.0321912
T318,ชลบุรี,Chon Buri,20,เมืองชลบุรี,เทศบาลตำบลโคกชะงาย,17.5,12277,701.5428571,13.3113966,100.9644068
T319,ชลบุรี,Chon Buri,20,เมืองชลบุรี,เทศบาลตำบลโคกตูม,20.44,4754,232.5831703,13.2684945,100.9678501
T320,ชลบุรี,Chon Buri,20,เกาะจันทร์,เทศบาลตำบลโคกปีบ,96.5,4611,47.78238342,13.414948,101.3353255
T321,ชลบุรี,Chon Buri,20,บ่อทอง,เทศบาลตำบลโคกพระ,8.18,3933,480.806846,13.2773617,101.4386031
T322,ชลบุรี,Chon Buri,20,บ่อทอง,เทศบาลตำบลโคกพุทรา,115,7494,65.16521739,13.2988235,101.360365
T323,ชลบุรี,Chon Buri,20,บางละมุง,เทศบาลตำบลโคกภู,78.6,8331,105.9923664,12.9481887,100.9747653
T324,ชลบุรี,Chon Buri,20,บางละมุง,เทศบาลตำบลโคกม่วง,57.85,17617,304.5289542,13.0160243,100.9694865
T325,ชลบุรี,Chon Buri,20,บางละมุง,เทศบาลตำบลโคกม่วง,6.38,10521,1649.059561,13.0407779,100.9401504
T326,ชลบุรี,Chon Buri,20,บางละมุง,เทศบาลตำบลโคกมะกอก,153,25510,166.7320261,12.8658749,100.9433476
T327,ชลบุรี,Chon Buri,20,บางละมุง,เทศบาลตำบลโคกม้า,27,14813,548.6296296,12.9898987,100.9632615
T328,ชลบุรี,Chon Buri,20,บ้านบึง,เทศบาลตำบลโคกล่าม,11.69,2387,204.1916168,13.2259529,101.23068
T329,ชลบุรี,Chon Buri,20,บ้านบึง,เทศบาลตำบลโคกศรี,1.2,4360,3633.333333,13.2524159,101.154288
T330,ชลบุรี,Chon Buri,20,บ้านบึง,เทศบาลตำบลโคกสลุด,40.41,9961,246.4983915,13.2854955,101.1752425
T331,ชลบุรี,Chon Buri,20,บ้านบึง,เทศบาลตำบลโคกสวาย,19.32,5673,293.6335404,13.3373235,101.0650369
T332,ชลบุรี,Chon Buri,20,บ้านบึง,เทศบาลตำบลโคกสะอาด,39.99,9441,236.084021,13.308029,101.1224066
T333,ชลบุรี,Chon Buri,20,เกาะจันทร์,เทศบาลตำบลโคกสะอาด,7.63,6529,855.7011796,13.3853895,101.3031978
T334,ชลบุรี,Chon Buri,20,พนัสนิคม,เทศบาลตำบลโคกสำโรง,52.58,13397,254.7926968,13.357767,101.2274513
T335,ชลบุรี,Chon Buri,20,พนัสนิคม,เทศบาลตำบลโคกสำราญ,5.5,4780,869.0909091,13.4450587,101.1590371
T336,ชลบุรี,Chon Buri,20,พนัสนิคม,เทศบาลตำบลโคกสี,12,5030,419.1666667,13.5360177,101.2322971
T337,ชลบุรี,Chon Buri,20,พานทอง,เทศบาลตำบลโคกสูง,2.83,4658,1645.936396,13.469214,101.092997
T338,ชลบุรี,Chon Buri,20,พานทอง,เทศบาลตำบลโคกสูง,24.5,15237,621.9183673,13.4152325,101.0652291
T339,ชลบุรี,Chon Buri,20,ศรีราชา,เทศบาลตำบลโคกสูง,7.5,13542,1805.6,13.2157882,100.9424114
T340,ชลบุรี,Chon Buri,20,สัตหีบ,เทศบาลตำบลโคกสูง,12.63,8236,652.0981789,12.8181092,100.9161079
T341,ชลบุรี,Chon Buri,20,สัตหีบ,เทศบาลตำบลโคกสูง,7.87,9984,1268.614994,12.7652723,100.9031251
T342,ชลบุรี,Chon Buri,20,สัตหีบ,เทศบาลตำบลโคกสูง,58,13014,224.3793103,12.7336087,100.9352146
T343,ชลบุรี,Chon Buri,20,สัตหีบ,เทศบาลตำบลโคกสูงสัมพันธ์,88.25,53107,601.7790368,12.7239961,100.8872403
T344,ชลบุรี,Chon Buri,20,หนองใหญ่,เทศบาลตำบลโคกหล่อ,108,7963,73.73148148,13.1472286,101.3829979
T345,ชลบุรี,Chon Buri,20,สัตหีบ,เทศบาลตำบลโชคชัย,59.25,6682,112.7763713,12.776748,100.9465874
T346,ชัยนาท,Chai Nat,18,เนินขาม,เทศบาลตำบลโซง,118,6206,52.59322034,14.9828742,99.8348146
T347,ชัยนาท,Chai Nat,18,เมืองชัยนาท,เทศบาลตำบลโซ่พิสัย,38.2,7681,201.0732984,15.2421219,100.2505418
T348,ชัยนาท,Chai Nat,18,เมืองชัยนาท,เทศบาลตำบลโดด,16.4,6804,414.8780488,15.1729139,100.146192
T349,ชัยนาท,Chai Nat,18,เมืองชัยนาท,เทศบาลตำบลโตนดด้วน,50,7822,156.44,15.1156475,100.0706082
T350,ชัยนาท,Chai Nat,18,เมืองชัยนาท,เทศบาลตำบลโนนเจริญ,30,8159,271.9666667,15.1456421,100.1400503
T351,ชัยนาท,Chai Nat,18,เมืองชัยนาท,เทศบาลตำบลโนนเมือง,28.73,5084,176.9578837,15.2000487,100.0959206
T352,ชัยนาท,Chai Nat,18,เมืองชัยนาท,เทศบาลตำบลโนนแดง,33,7570,229.3939394,15.252591,100.09635
T353,ชัยนาท,Chai Nat,18,มโนรมย์,เทศบาลตำบลโนนไทย,1.82,2138,1174.725275,15.3103001,100.0819181
T354,ชัยนาท,Chai Nat,18,มโนรมย์,เทศบาลตำบลโนนคอม,27.92,6116,219.0544413,15.2962301,100.1866138
T355,ชัยนาท,Chai Nat,18,มโนรมย์,เทศบาลตำบลโนนฆ้อง,22.61,3524,155.8602388,15.3501011,100.1022318
T356,ชัยนาท,Chai Nat,18,มโนรมย์,เทศบาลตำบลโนนชัยศรี,30.28,3420,112.9458388,15.3103001,100.0819181
T357,ชัยนาท,Chai Nat,18,วัดสิงห์,เทศบาลตำบลโนนดินแดง,2,3817,1908.5,15.258622,100.0437557
T358,ชัยนาท,Chai Nat,18,วัดสิงห์,เทศบาลตำบลโนนตาล,50.52,3586,70.98178939,15.254921,99.9695356
T359,ชัยนาท,Chai Nat,18,วัดสิงห์,เทศบาลตำบลโนนทอง,40.52,3794,93.63277394,15.1635439,100.0060773
T360,ชัยนาท,Chai Nat,18,สรรคบุรี,เทศบาลตำบลโนนทอง,1.8,2900,1611.111111,15.0497246,100.1576596
T361,ชัยนาท,Chai Nat,18,สรรคบุรี,เทศบาลตำบลโนนท่อน,72.56,12226,168.4950386,15.0434144,100.1378861
T362,ชัยนาท,Chai Nat,18,สรรคบุรี,เทศบาลตำบลโนนน้ำเกลี้ยง,91.83,12111,131.8850049,15.0144987,100.1440109
T363,ชัยนาท,Chai Nat,18,สรรคบุรี,เทศบาลตำบลโนนบุรี,49.96,7257,145.256205,14.9993592,100.2085038
T364,ชัยนาท,Chai Nat,18,สรรคบุรี,เทศบาลตำบลโนนปอแดง,21.44,8982,418.9365672,15.1004491,100.206908
T365,ชัยนาท,Chai Nat,18,สรรคบุรี,เทศบาลตำบลโนนศิลา,46.5,7604,163.5268817,14.9967281,100.2383482
T366,ชัยนาท,Chai Nat,18,สรรคบุรี,เทศบาลตำบลโนนศิลา,21.35,2913,136.440281,14.9721729,100.2486412
T367,ชัยนาท,Chai Nat,18,สรรคบุรี,เทศบาลตำบลโนนสมบูรณ์,28,5441,194.3214286,15.0812091,100.2129631
T368,ชัยนาท,Chai Nat,18,สรรพยา,เทศบาลตำบลโนนสมบูรณ์,0.774,1797,2321.705426,15.0745914,100.2822858
T369,ชัยนาท,Chai Nat,18,สรรพยา,เทศบาลตำบลโนนสวรรค์,2.5,3335,1334,15.132442,100.25111
T370,ชัยนาท,Chai Nat,18,สรรพยา,เทศบาลตำบลโนนสว่าง,29.77,5890,197.8501847,15.1618069,100.1968293
T371,ชัยนาท,Chai Nat,18,สรรพยา,เทศบาลตำบลโนนสะอาด,29.49,6712,227.6025771,15.1390917,100.2519423
T372,ชัยนาท,Chai Nat,18,สรรพยา,เทศบาลตำบลโนนสะอาด,50.42,8885,176.2197541,15.2064111,100.1992946
T373,ชัยนาท,Chai Nat,18,สรรพยา,เทศบาลตำบลโนนสะอาด,18.54,5488,296.00863,15.11951,100.276298
T374,ชัยนาท,Chai Nat,18,สรรพยา,เทศบาลตำบลโนนสะอาด,29.27,3600,122.9928254,15.1365549,100.243237
T375,ชัยนาท,Chai Nat,18,สรรพยา,เทศบาลตำบลโนนสัง,18.54,4886,263.5382956,15.0956006,100.2781486
T376,ชัยนาท,Chai Nat,18,หนองมะโมง,เทศบาลตำบลโนนสุวรรณ,107,6627,61.93457944,15.279957,99.8169128
T377,ชัยนาท,Chai Nat,18,หนองมะโมง,เทศบาลตำบลโนนสูง,81.6,4960,60.78431373,15.2736892,99.866031
T378,ชัยนาท,Chai Nat,18,หันคา,เทศบาลตำบลโนนสูง,161,7694,47.78881988,15.090605,99.9864863
T379,ชัยนาท,Chai Nat,18,หันคา,เทศบาลตำบลโนนสูง,6,1428,238,15.0572276,100.004475
T380,ชัยนาท,Chai Nat,18,หันคา,เทศบาลตำบลโนนสูงเปลือย,4.75,4317,908.8421053,14.9560179,99.9940045
T381,ชัยนาท,Chai Nat,18,หันคา,เทศบาลตำบลโนนหวาย,30.86,5816,188.4640311,15.0747594,100.0434863
T382,ชัยนาท,Chai Nat,18,หันคา,เทศบาลตำบลโนนหัน,82,8916,108.7317073,14.9560179,99.9940045
T383,ชัยนาท,Chai Nat,18,หันคา,เทศบาลตำบลโป่ง,23.23,3809,163.9690056,15.0341858,100.025381
T384,ชัยภูมิ,Chaiyaphum,36,เกษตรสมบูรณ์,เทศบาลตำบลโป่งน้ำร้อน,1.1,3204,2912.727273,16.2779479,101.9535518
T385,ชัยภูมิ,Chaiyaphum,36,เกษตรสมบูรณ์,เทศบาลตำบลโพงาม,7,7994,1142,16.377041,101.974981
T386,ชัยภูมิ,Chaiyaphum,36,เกษตรสมษูรณ์,เทศบาลตำบลโพตลาดแก้ว,154,15154,98.4025974,16.1255533,101.8969624
T387,ชัยภูมิ,Chaiyaphum,36,เทพสถิต,เทศบาลตำบลโพทะเล,7,3864,552,15.4159777,101.4112049
T388,ชัยภูมิ,Chaiyaphum,36,เมืองชัยภูมิ,เทศบาลตำบลโพธิ์เสด็จ,5.34,5272,987.2659176,15.6987216,102.0151253
T389,ชัยภูมิ,Chaiyaphum,36,เมืองชัยภูมิ,เทศบาลตำบลโพธิ์ไชย,6.53,4710,721.2863706,15.7865306,102.195905
T390,ชัยภูมิ,Chaiyaphum,36,เมืองชัยภูมิ,เทศบาลตำบลโพธิ์ไทร,78.68,4565,58.01982715,15.8374011,101.9462187
T391,ชัยภูมิ,Chaiyaphum,36,เมืองชัยภูมิ,เทศบาลตำบลโพธิ์ไทร,43.27,10691,247.0764964,15.7549458,101.9807048
T392,ชัยภูมิ,Chaiyaphum,36,แก้งคร้อ,เทศบาลตำบลโพธิ์กระสังข์,4.1,9156,2233.170732,16.1083319,102.2577217
T393,ชัยภูมิ,Chaiyaphum,36,แก้งคร้อ,เทศบาลตำบลโพธิ์กลาง,11,11326,1029.636364,16.0461472,102.1763889
T394,ชัยภูมิ,Chaiyaphum,36,แก้งคร้อ,เทศบาลตำบลโพธิ์งาม,90.7,9972,109.9448732,16.2566957,102.3586431
T395,ชัยภูมิ,Chaiyaphum,36,คอนสวรรค์,เทศบาลตำบลโพธิ์ชัย,3,4447,1482.333333,15.9425191,102.3243255
T396,ชัยภูมิ,Chaiyaphum,36,คอนสาร,เทศบาลตำบลโพธิ์ชัย,8.96,4433,494.7544643,16.6078107,101.9291015
T397,ชัยภูมิ,Chaiyaphum,36,คอนสาร,เทศบาลตำบลโพธิ์ทอง,87,15279,175.6206897,16.5523915,101.9064342
T398,ชัยภูมิ,Chaiyaphum,36,คอนสาร,เทศบาลตำบลโพธิ์ทอง,629.38,6145,9.763576853,16.4902184,101.7992884
T399,ชัยภูมิ,Chaiyaphum,36,จัตุรัส,เทศบาลตำบลโพธิ์ทอง,3.577,4378,1223.930668,15.691129,101.8578878
T400,ชัยภูมิ,Chaiyaphum,36,จัตุรัส,เทศบาลตำบลโพธิ์ประทับช้าง,2.51,1997,795.6175299,15.4145021,101.8403552
T401,ชัยภูมิ,Chaiyaphum,36,จัตุรัส,เทศบาลตำบลโพธิ์พระยา,52,7343,141.2115385,15.5629901,101.900579
T402,ชัยภูมิ,Chaiyaphum,36,บ้านเขว้า,เทศบาลตำบลโพธิ์พิทักษ์,4.44,8515,1917.792793,15.7800918,101.9075777
T403,ชัยภูมิ,Chaiyaphum,36,บ้านเขว้า,เทศบาลตำบลโพธิ์ศรี,61.33,6517,106.2612098,15.7628559,101.9198457
T404,ชัยภูมิ,Chaiyaphum,36,บ้านเขว้า,เทศบาลตำบลโพน,146.92,11393,77.54560305,15.7937747,101.845141
T405,ชัยภูมิ,Chaiyaphum,36,บ้านเขว้า,เทศบาลตำบลโพนเมือง,65.1,9769,150.0614439,15.6704629,101.9387045
T406,ชัยภูมิ,Chaiyaphum,36,บ้านแท่น,เทศบาลตำบลโพนแพง,2.49,4276,1717.269076,16.4074346,102.3462478
T407,ชัยภูมิ,Chaiyaphum,36,บ้านแท่น,เทศบาลตำบลโพนงาม,60.2,9430,156.6445183,16.355573,102.3789799
T408,ชัยภูมิ,Chaiyaphum,36,บำเหน็จณรงค์,เทศบาลตำบลโพนทราย,2.1,5408,2575.238095,15.4460743,101.6884232
T409,ชัยภูมิ,Chaiyaphum,36,บำเหน็จณรงค์,เทศบาลตำบลโพนทราย,8.29,7334,884.6803378,15.5060703,101.6726755
T410,ชัยภูมิ,Chaiyaphum,36,ภูเขียว,เทศบาลตำบลโพนทอง,9.45,5689,602.010582,16.3301579,102.2711421
T411,ชัยภูมิ,Chaiyaphum,36,ภูเขียว,เทศบาลตำบลโพนทอง,1.94,7016,3616.494845,16.3682631,102.1344418
T412,ชัยภูมิ,Chaiyaphum,36,ภูเขียว,เทศบาลตำบลโพนทอง,112.43,14441,128.4443654,16.4090482,102.060403
T413,ชัยภูมิ,Chaiyaphum,36,ภูเขียว,เทศบาลตำบลโพนพิสัย,93.56,13244,141.5562206,16.1993959,102.1781147
T414,ชัยภูมิ,Chaiyaphum,36,หนองบัวแดง,เทศบาลตำบลโพนสวรรค์,8.45,9273,1097.39645,16.0789298,101.799884
T415,ชัยภูมิ,Chaiyaphum,36,หนองบัวแดง,เทศบาลตำบลโพนสา,186.97,8282,44.29587634,16.069104,101.7873673
T416,ชัยภูมิ,Chaiyaphum,36,หนองบัวระเหว,เทศบาลตำบลโพนสูง,37.89,5873,155.0013196,15.749336,101.7597756
T417,ชัยภูมิ,Chaiyaphum,36,หนองบัวระเหว,เทศบาลตำบลโพนสูง,147.782,5956,40.3026079,15.7778148,101.7005554
T418,ชัยภูมิ,Chaiyaphum,36,หนองบัวระเหว,เทศบาลตำบลโพนางดำตก,198,7252,36.62626263,15.8828586,101.6622633
T419,ชุมพร,Chumphon,86,เมืองชุมพร,เทศบาลตำบลโพนางดำออก,35.87,8395,234.0395874,10.5375282,99.1661275
T420,ชุมพร,Chumphon,86,เมืองชุมพร,เทศบาลตำบลโพรงมะเดื่อ,93.44,8780,93.9640411,10.4825182,98.9355737
T421,ชุมพร,Chumphon,86,เมืองชุมพร,เทศบาลตำบลโพสะ,27.89,9951,356.79455,10.4698815,99.2137417
T422,ชุมพร,Chumphon,86,เมืองชุมพร,เทศบาลตำบลโพสังโฆ,0.81,6955,8586.419753,10.4438587,99.249955
T423,ชุมพร,Chumphon,86,เมืองชุมพร,เทศบาลตำบลโพหัก,10.85,6317,582.2119816,10.5110793,99.1183807
T424,ชุมพร,Chumphon,86,เมืองชุมพร,เทศบาลตำบลโยนก,30,4053,135.1,10.395256,99.2667708
T425,ชุมพร,Chumphon,86,เมืองชุมพร,เทศบาลตำบลโรงช้าง,47.58,6399,134.4892812,10.4251714,99.2003769
T426,ชุมพร,Chumphon,86,เมืองชุมพร,เทศบาลตำบลโรงช้าง,41.32,6373,154.2352372,10.5118841,99.2354575
T427,ชุมพร,Chumphon,86,เมืองชุมพร,เทศบาลตำบลในเมือง,19.94,4078,204.5135406,10.4582871,99.1289557
T428,ชุมพร,Chumphon,86,ทุ่งตะโก,เทศบาลตำบลในเมือง,45,4314,95.86666667,10.0973089,99.1451673
T429,ชุมพร,Chumphon,86,ท่าแซะ,เทศบาลตำบลในเมือง,3.03,2135,704.620462,10.665206,99.1727153
T430,ชุมพร,Chumphon,86,ท่าแซะ,เทศบาลตำบลในเมือง,5.9,1832,310.5084746,10.6638968,99.1933992
T431,ชุมพร,Chumphon,86,ทุ่งตะโก,เทศบาลตำบลใหม่,64.81,5889,90.86560716,10.1364398,99.0737287
T432,ชุมพร,Chumphon,86,ปะทิว,เทศบาลตำบลไก่คำ,1.86,1363,732.7956989,10.7042918,99.3203763
T433,ชุมพร,Chumphon,86,ปะทิว,เทศบาลตำบลไคสี,7.88,4003,507.9949239,10.8582505,99.3465367
T434,ชุมพร,Chumphon,86,ปะทิว,เทศบาลตำบลไชโย,6.15,2274,369.7560976,10.6027952,99.2760249
T435,ชุมพร,Chumphon,86,ปะทิว,เทศบาลตำบลไชยปราการ,78.71,4967,63.10506924,10.7134726,99.2492491
T436,ชุมพร,Chumphon,86,ปะทิว,เทศบาลตำบลไชยมงคล,196,10193,52.00510204,10.7765983,99.3716159
T437,ชุมพร,Chumphon,86,ปะทิว,เทศบาลตำบลไชยวาน,83.87,3347,39.90699893,10.6779361,99.3154757
T438,ชุมพร,Chumphon,86,พะโต๊ะ,เทศบาลตำบลไชยสถาน,4.8,1572,327.5,9.7866661,98.7763793
T439,ชุมพร,Chumphon,86,ละแม,เทศบาลตำบลไทรโยค,5.22,3035,581.4176245,9.7813401,99.1121926
T440,ชุมพร,Chumphon,86,สวี,เทศบาลตำบลไทรโยง-ไชยวาล,3,3018,1006,10.330681,99.0930469
T441,ชุมพร,Chumphon,86,สวี,เทศบาลตำบลไทรงาม,46.5,4847,104.2365591,10.213327,99.100489
T442,ชุมพร,Chumphon,86,หลังสวน,เทศบาลตำบลไทรน้อย,8.61,6825,792.6829268,9.9480345,99.1557174
T443,ชุมพร,Chumphon,86,หลังสวน,เทศบาลตำบลไทรม้า,125.47,7557,60.22953694,9.9819425,99.0647424
T444,เชียงใหม่,Chiang Mai,50,เชียงดาว,เทศบาลตำบลไทรย้อย,3.5,4314,1232.571429,19.3612348,98.9625609
T445,เชียงใหม่,Chiang Mai,50,เชียงดาว,เทศบาลตำบลไผ่,9.8,3929,400.9183673,19.4447648,98.9663794
T446,เชียงใหม่,Chiang Mai,50,เชียงดาว,เทศบาลตำบลไผ่กองดิน,486.08,28159,57.93079329,19.5932314,98.961634
T447,เชียงใหม่,Chiang Mai,50,เชียงดาว,เทศบาลตำบลไผ่ดำพัฒนา,148,2243,15.15540541,19.480963,98.9593764
T448,เชียงใหม่,Chiang Mai,50,เชียงดาว,เทศบาลตำบลไผ่ต่ำ,224.5,8163,36.36080178,19.5344612,98.9618062
T449,เชียงใหม่,Chiang Mai,50,เชียงดาว,เทศบาลตำบลไผ่รอบ,258.4,11568,44.76780186,19.5068676,99.0792263
T450,เชียงใหม่,Chiang Mai,50,เชียงดาว,เทศบาลตำบลไพรบึง,287.5,9410,32.73043478,19.3411223,98.9603131
T451,เชียงใหม่,Chiang Mai,50,เมืองเชียงใหม่,เทศบาลตำบลไพล,6.8,9045,1330.147059,18.8173381,98.9819146
T452,เชียงใหม่,Chiang Mai,50,เมืองเชียงใหม่,เทศบาลตำบลไพศาลี,3.67,7602,2071.389646,18.7530134,99.0166147
T453,เชียงใหม่,Chiang Mai,50,เมืองเชียงใหม่,เทศบาลตำบลไม้เรียง,2.85,6452,2263.859649,18.8144958,99.0070774
T454,เชียงใหม่,Chiang Mai,50,เมืองเชียงใหม่,เทศบาลตำบลไม้งาม,5.7,5578,978.5964912,18.7686926,99.0262665
T455,เชียงใหม่,Chiang Mai,50,เมืองเชียงใหม่,เทศบาลตำบลไม้ยา,58.95,16734,283.8676845,18.7910009,98.9607106
T456,เชียงใหม่,Chiang Mai,50,เมืองเชียงใหม่,เทศบาลตำบลไร่,25,15936,637.44,18.7547586,98.9896498
T457,เชียงใหม่,Chiang Mai,50,เมืองเชียงใหม่,เทศบาลตำบลไร่เก่า,2.97,6888,2319.191919,18.7866742,99.0339197
T458,เชียงใหม่,Chiang Mai,50,เมืองเชียงใหม่,เทศบาลตำบลไร่ใหม่,10.44,10065,964.0804598,18.8271719,98.9990832
T459,เชียงใหม่,Chiang Mai,50,แม่แจ่ม,เทศบาลตำบลไหล่หิน,3.5,2764,789.7142857,18.496145,98.372975
T460,เชียงใหม่,Chiang Mai,50,แม่แจ่ม,เทศบาลตำบลไฮหย่อง,115.89,4951,42.72154629,18.4848577,98.3782249
T461,เชียงใหม่,Chiang Mai,50,แม่แตง,เทศบาลตำบลกกโก,32.09,8430,262.69866,19.1241967,98.9471872
T462,เชียงใหม่,Chiang Mai,50,แม่แตง,เทศบาลตำบลกกกุง,33.76,4000,118.4834123,19.1636874,98.9484129
T463,เชียงใหม่,Chiang Mai,50,แม่แตง,เทศบาลตำบลกกตูม,132.64,5419,40.85494572,19.1049376,99.0002038
T464,เชียงใหม่,Chiang Mai,50,แม่แตง,เทศบาลตำบลกงไกรลาศ,52.7,7206,136.7362429,19.0622254,98.9401259
T465,เชียงใหม่,Chiang Mai,50,แม่แตง,เทศบาลตำบลกงพานพันดอน,36.97,4248,114.9039762,19.1381838,98.9314553
T466,เชียงใหม่,Chiang Mai,50,แม่ริม,เทศบาลตำบลกงรถ,4.7,9842,2094.042553,18.9160298,98.9607776
T467,เชียงใหม่,Chiang Mai,50,แม่ริม,เทศบาลตำบลกงหรา,46.61,7450,159.8369449,18.9919438,98.9449669
T468,เชียงใหม่,Chiang Mai,50,แม่ริม,เทศบาลตำบลกบินทร์,5.1,3332,653.3333333,18.9333505,98.940526
T469,เชียงใหม่,Chiang Mai,50,แม่ริม,เทศบาลตำบลกมลาไสย,36.75,9899,269.3605442,18.9424576,98.9433858
T470,เชียงใหม่,Chiang Mai,50,แม่ริม,เทศบาลตำบลกรอกสมบูรณ์,54.5,8862,162.6055046,18.9200721,98.9178727
T471,เชียงใหม่,Chiang Mai,50,แม่ริม,เทศบาลตำบลกระแสสินธุ์,37.19,5741,154.3694542,18.8967843,98.97667
T472,เชียงใหม่,Chiang Mai,50,แม่วาง,เทศบาลตำบลกระโสม,4.6,4860,1056.521739,18.6015909,98.8166618
T473,เชียงใหม่,Chiang Mai,50,แม่อาย,เทศบาลตำบลกระจัน,40,9723,243.075,20.0963025,99.3118282
T474,เชียงใหม่,Chiang Mai,50,ไชยปราการ,เทศบาลตำบลกระจับ,49.13,16232,330.3887645,19.7313909,99.1371561
T475,เชียงใหม่,Chiang Mai,50,ไชยปราการ,เทศบาลตำบลกระดังงา,83.33,11920,143.0457218,19.7313367,99.1114332
T476,เชียงใหม่,Chiang Mai,50,จอมทอง,เทศบาลตำบลกระบี่น้อย,3.82,10028,2625.13089,18.4170459,98.6771818
T477,เชียงใหม่,Chiang Mai,50,จอมทอง,เทศบาลตำบลกระสัง,86.98,8964,103.0581743,18.291158,98.6400601
T478,เชียงใหม่,Chiang Mai,50,จอมทอง,เทศบาลตำบลกระหวัน,122.8,3891,31.68566775,18.3896264,98.6779533
T479,เชียงใหม่,Chiang Mai,50,จอมทอง,เทศบาลตำบลกระหาด,210.8,11977,56.81688805,18.21084,98.6166053
T480,เชียงใหม่,Chiang Mai,50,จอมทอง,เทศบาลตำบลกรับใหญ่,377,12938,34.31830239,18.4902114,98.6746386
T481,เชียงใหม่,Chiang Mai,50,จอมทอง,เทศบาลตำบลกรูด,92,12504,135.9130435,18.3896264,98.6779533
T482,เชียงใหม่,Chiang Mai,50,ดอยหล่อ,เทศบาลตำบลกลางเวียง,78,4983,63.88461538,18.5578209,98.8306047
T483,เชียงใหม่,Chiang Mai,50,ดอยหล่อ,เทศบาลตำบลกลางใหญ่,8.5,5164,607.5294118,18.5137792,98.8446607
T484,เชียงใหม่,Chiang Mai,50,ดอยหล่อ,เทศบาลตำบลกลางดง,90,3921,43.56666667,18.529187,98.8209791
T485,เชียงใหม่,Chiang Mai,50,ดอยเต่า,เทศบาลตำบลกลางดง,1250,4340,3.472,17.9516732,98.6877652
T486,เชียงใหม่,Chiang Mai,50,ดอยสะเก็ด,เทศบาลตำบลกลางหมื่น,5.3,4131,779.4339623,18.8707399,99.1519808
T487,เชียงใหม่,Chiang Mai,50,ดอยสะเก็ด,เทศบาลตำบลกวนวัน,11.93,4120,345.3478625,18.8246108,99.1208466
T488,เชียงใหม่,Chiang Mai,50,ดอยสะเก็ด,เทศบาลตำบลก้อ,63,7275,115.4761905,18.8707399,99.1519808
T489,เชียงใหม่,Chiang Mai,50,ดอยสะเก็ด,เทศบาลตำบลกองควาย,125,6057,48.456,18.9157968,99.1349573
T490,เชียงใหม่,Chiang Mai,50,ดอยสะเก็ด,เทศบาลตำบลกองดิน,19.09,12005,628.8632792,18.8211245,99.0757
T491,เชียงใหม่,Chiang Mai,50,ดอยสะเก็ด,เทศบาลตำบลกองนาง,60,5530,92.16666667,18.8340104,99.1790467
T492,เชียงใหม่,Chiang Mai,50,ดอยสะเก็ด,เทศบาลตำบลกะเปอร์,159.36,3476,21.812249,18.9136069,99.2281801
T493,เชียงใหม่,Chiang Mai,50,ดอยสะเก็ด,เทศบาลตำบลกะทูน,6.72,5298,788.3928571,18.8041051,99.1462889
T494,เชียงใหม่,Chiang Mai,50,ดอยสะเก็ด,เทศบาลตำบลกะปาง,9,3758,417.5555556,18.8041051,99.1462889
T495,เชียงใหม่,Chiang Mai,50,ดอยสะเก็ด,เทศบาลตำบลกะรน,6.49,3652,562.7118644,18.8124282,99.1259739
T496,เชียงใหม่,Chiang Mai,50,ดอยสะเก็ด,เทศบาลตำบลกะลุวอเหนือ,23.33,3854,165.1950279,18.8437286,99.1371791
T497,เชียงใหม่,Chiang Mai,50,ดอยสะเก็ด,เทศบาลตำบลกังแอน,9.45,3408,360.6349206,18.8066535,99.0968902
T498,เชียงใหม่,Chiang Mai,50,ดอยสะเก็ด,เทศบาลตำบลกันตวจระมวล,5.6,3845,686.6071429,18.8351395,99.0816241
T499,เชียงใหม่,Chiang Mai,50,เวียงแหง,เทศบาลตำบลกันทรอม,22,4048,184,19.6266785,98.6296206
T500,เชียงใหม่,Chiang Mai,50,ฝาง,เทศบาลตำบลกันทรารมย์,2.54,2664,1048.818898,19.7853658,99.16456
T501,เชียงใหม่,Chiang Mai,50,ฝาง,เทศบาลตำบลกาญจนดิษฐ์,2.71,7049,2601.107011,19.9358212,99.2231387
T502,เชียงใหม่,Chiang Mai,50,ฝาง,เทศบาลตำบลก้านเหลือง,58.2,11625,199.742268,19.8693081,99.181475
T503,เชียงใหม่,Chiang Mai,50,ฝาง,เทศบาลตำบลกาบเชิง,91.46,7353,80.39580144,19.7809484,99.1640528
T504,เชียงใหม่,Chiang Mai,50,พร้าว,เทศบาลตำบลการะเกด,12.3,5221,424.4715447,19.3644919,99.2019081
T505,เชียงใหม่,Chiang Mai,50,พร้าว,เทศบาลตำบลกำเนิดนพคุณ,210,6189,29.47142857,19.2504661,99.1837713
T506,เชียงใหม่,Chiang Mai,50,พร้าว,เทศบาลตำบลกำแพง,73.96,3292,44.51054624,19.34399,99.1763031
T507,เชียงใหม่,Chiang Mai,50,พร้าว,เทศบาลตำบลกำแพง,44,3856,87.63636364,19.373692,99.17412
T508,เชียงใหม่,Chiang Mai,50,พร้าว,เทศบาลตำบลกำแพงเพชร,73.57,5336,72.52956368,19.3972655,99.3000551
T509,เชียงใหม่,Chiang Mai,50,พร้าว,เทศบาลตำบลกำแพงแสน,156.93,4500,28.67520551,19.4091463,99.2091377
T510,เชียงใหม่,Chiang Mai,50,สะเมิง,เทศบาลตำบลกำแพงดิน,208,5018,24.125,18.8471503,98.7303623
T511,เชียงใหม่,Chiang Mai,50,สันกำแพง,เทศบาลตำบลกำพวน,22.7,17757,782.246696,18.7462294,99.1148782
T512,เชียงใหม่,Chiang Mai,50,สันกำแพง,เทศบาลตำบลกุงเก่า,23,5796,252,18.7778616,99.1240789
T513,เชียงใหม่,Chiang Mai,50,สันกำแพง,เทศบาลตำบลกุฏโง้ง,31.48,7879,250.2858958,18.7056783,99.1065157
T514,เชียงใหม่,Chiang Mai,50,สันกำแพง,เทศบาลตำบลกุดเชียงหมี,46.34,5273,113.7893828,18.7348097,99.2077324
T515,เชียงใหม่,Chiang Mai,50,สันกำแพง,เทศบาลตำบลกุดเรือคำ,8.8,7192,817.2727273,18.768175,99.055096
T516,เชียงใหม่,Chiang Mai,50,สันกำแพง,เทศบาลตำบลกุดแห่,46.34,5979,129.0246008,18.7890517,99.1608383
T517,เชียงใหม่,Chiang Mai,50,สันทราย,เทศบาลตำบลกุดแฮด,36,26177,727.1388889,18.837421,99.0442304
T518,เชียงใหม่,Chiang Mai,50,สันทราย,เทศบาลตำบลกุดไห,87.7,9271,105.7126568,19.014268,98.9703266
T519,เชียงใหม่,Chiang Mai,50,สันทราย,เทศบาลตำบลกุดกว้าง,12.39,14920,1204.196933,18.845864,99.0271008
T520,เชียงใหม่,Chiang Mai,50,สันทราย,เทศบาลตำบลกุดข้าวปุ้น,58,7721,133.1206897,18.9975776,98.9781934
T521,เชียงใหม่,Chiang Mai,50,สันทราย,เทศบาลตำบลกุดจับ,30.55,10095,330.4418985,18.8979618,99.0499997
T522,เชียงใหม่,Chiang Mai,50,สันทราย,เทศบาลตำบลกุดจิก,8.95,9691,1082.793296,18.8374394,99.0575121
T523,เชียงใหม่,Chiang Mai,50,สันทราย,เทศบาลตำบลกุดจิก,6.75,5609,830.962963,18.8092211,99.0420226
T524,เชียงใหม่,Chiang Mai,50,สันทราย,เทศบาลตำบลกุดชมภู,9.34,2755,294.9678801,18.8663038,99.0673564
T525,เชียงใหม่,Chiang Mai,50,สันทราย,เทศบาลตำบลกุดชุมพัฒนา,6.46,4316,668.1114551,18.8590365,99.0863958
T526,เชียงใหม่,Chiang Mai,50,สันทราย,เทศบาลตำบลกุดดินจี่,28.28,3969,140.3465347,18.9465279,98.9835154
T527,เชียงใหม่,Chiang Mai,50,สันทราย,เทศบาลตำบลกุดดู่,30.38,5335,175.6089533,18.8914176,99.0955974
T528,เชียงใหม่,Chiang Mai,50,สันป่าตอง,เทศบาลตำบลกุดนกเปล้า,23.84,10365,434.7734899,18.5753396,98.8800108
T529,เชียงใหม่,Chiang Mai,50,สันป่าตอง,เทศบาลตำบลกุดน้ำใส,3.5,4712,1346.285714,18.6076516,98.8868313
T530,เชียงใหม่,Chiang Mai,50,สันป่าตอง,เทศบาลตำบลกุดบาก,12.44,5555,446.5434084,18.6094925,98.9173734
T531,เชียงใหม่,Chiang Mai,50,สันป่าตอง,เทศบาลตำบลกุดประทาย,18.96,9844,519.1983122,18.6076516,98.8868313
T532,เชียงใหม่,Chiang Mai,50,สันป่าตอง,เทศบาลตำบลกุดปลาดุก,16.5,6352,384.969697,18.5852872,98.8529626
T533,เชียงใหม่,Chiang Mai,50,สันป่าตอง,เทศบาลตำบลกุดสิม,16.65,6571,394.6546547,18.6328583,98.8510128
T534,เชียงใหม่,Chiang Mai,50,สารภี,เทศบาลตำบลกุดสิมคุ้มใหม่,10.04,9537,949.9003984,18.7021722,99.0374091
T535,เชียงใหม่,Chiang Mai,50,สารภี,เทศบาลตำบลกุดหมากไฟ,12.62,12457,987.0839937,18.7436324,99.0134038
T536,เชียงใหม่,Chiang Mai,50,สารภี,เทศบาลตำบลกุดหว้า,13.74,7063,514.0465793,18.6990051,99.0583779
T537,เชียงใหม่,Chiang Mai,50,สารภี,เทศบาลตำบลกุมภวาปี,9,6263,695.8888889,18.6787036,99.0405159
T538,เชียงใหม่,Chiang Mai,50,สารภี,เทศบาลตำบลกุยบุรี,8.65,5237,605.433526,18.7351824,99.0406302
T539,เชียงใหม่,Chiang Mai,50,สารภี,เทศบาลตำบลกุสุมาลย์,10.26,5519,537.91423,18.6730398,98.9784774
T540,เชียงใหม่,Chiang Mai,50,สารภี,เทศบาลตำบลกู่แก้ว,6.92,3906,564.4508671,18.6996822,98.9919291
T541,เชียงใหม่,Chiang Mai,50,สารภี,เทศบาลตำบลกู่กาสิงห์,5.12,2799,546.6796875,18.6475699,99.0052321
T542,เชียงใหม่,Chiang Mai,50,สารภี,เทศบาลตำบลขนวน,13.63,9991,733.0154072,18.7452491,98.9940855
T543,เชียงใหม่,Chiang Mai,50,สารภี,เทศบาลตำบลขนอม,14.84,5410,364.5552561,18.6521529,98.9701109
T544,เชียงใหม่,Chiang Mai,50,สารภี,เทศบาลตำบลขมิ้น,6.83,5320,778.9165447,18.6860116,99.0297731
T545,เชียงใหม่,Chiang Mai,50,สารภี,เทศบาลตำบลขวาว,5.53,4002,723.6889693,18.7429299,99.0606283
T546,เชียงใหม่,Chiang Mai,50,หางดง,เทศบาลตำบลขัวมุง,14,8814,629.5714286,18.6170889,98.9511198
T547,เชียงใหม่,Chiang Mai,50,หางดง,เทศบาลตำบลขาณุวรลักษบุรี,10,5297,529.7,18.6685586,98.9256636
T548,เชียงใหม่,Chiang Mai,50,หางดง,เทศบาลตำบลขามเรียง,113.7,5102,44.87247142,18.7501739,98.8896447
T549,เชียงใหม่,Chiang Mai,50,หางดง,เทศบาลตำบลขามใหญ่,4.06,3270,805.4187192,18.7022774,98.9161845
T550,เชียงใหม่,Chiang Mai,50,หางดง,เทศบาลตำบลขามทะเลสอ,92,6489,70.5326087,18.7097573,98.9008493
T551,เชียงใหม่,Chiang Mai,50,หางดง,เทศบาลตำบลขามป้อม,2.72,5474,2012.5,18.6914965,98.9295968
T552,เชียงใหม่,Chiang Mai,50,หางดง,เทศบาลตำบลขามสะแกแสง,14,10251,732.2142857,18.6914965,98.9295968
T553,เชียงใหม่,Chiang Mai,50,หางดง,เทศบาลตำบลขี้เหล็ก,13,11745,903.4615385,18.7048562,98.9661558
T554,เชียงใหม่,Chiang Mai,50,หางดง,เทศบาลตำบลขี้เหล็ก,10.4,5797,557.4038462,18.6441545,98.9285696
T555,เชียงใหม่,Chiang Mai,50,หางดง,เทศบาลตำบลขี้เหล็ก,14,10030,716.4285714,18.723502,98.926542
T556,เชียงใหม่,Chiang Mai,50,อมก๋อย,เทศบาลตำบลขึ่ง,4.5,1102,244.8888889,17.8034296,98.3625204
T557,เชียงใหม่,Chiang Mai,50,ฮอด,เทศบาลตำบลขุนแก้ว,6,5919,986.5,18.1678057,98.5062007
T558,เชียงใหม่,Chiang Mai,50,ฮอด,เทศบาลตำบลขุนกระทิง,402.65,11873,29.48714765,18.147633,98.34819
T559,เชียงใหม่,Chiang Mai,50,ฮอด,เทศบาลตำบลขุนทะเล,104.8,5289,50.46755725,18.1109161,98.7260927
T560,เชียงราย,Chiang Rai,57,เชียงแสน,เทศบาลตำบลขุนทะเล,2.26,4916,2175.221239,20.26662,100.083316
T561,เชียงราย,Chiang Rai,57,เชียงแสน,เทศบาลตำบลขุนพัดเพ็ง,54.34,6476,119.1755613,20.286668,100.082381
T562,เชียงราย,Chiang Rai,57,เชียงแสน,เทศบาลตำบลขุนยวม,50,4634,92.68,20.2402619,100.0673745
T563,เชียงราย,Chiang Rai,57,เชียงแสน,เทศบาลตำบลขุนหาญ,101,8257,81.75247525,20.3060526,100.2310571
T564,เชียงราย,Chiang Rai,57,เชียงแสน,เทศบาลตำบลขุย,209,10499,50.23444976,20.2546115,100.1796467
T565,เชียงราย,Chiang Rai,57,เชียงของ,เทศบาลตำบลคชสิทธิ์,77.04,6357,82.51557632,19.990257,100.3323412
T566,เชียงราย,Chiang Rai,57,เชียงของ,เทศบาลตำบลครบุรีใต้,1.8,4169,2316.111111,20.2646699,100.404614
T567,เชียงราย,Chiang Rai,57,เชียงของ,เทศบาลตำบลครึ่ง,99,6590,66.56565657,20.034701,100.3786203
T568,เชียงราย,Chiang Rai,57,เชียงของ,เทศบาลตำบลคลองเต็ง,120,8360,69.66666667,20.2646699,100.404614
T569,เชียงราย,Chiang Rai,57,เชียงของ,เทศบาลตำบลคลองแงะ,257,12294,47.83657588,20.0581296,100.3023176
T570,เชียงราย,Chiang Rai,57,เชียงของ,เทศบาลตำบลคลองแม่ลาย,94,8770,93.29787234,20.1399467,100.4092371
T571,เชียงราย,Chiang Rai,57,เชียงของ,เทศบาลตำบลคลองแสนแสบ,101,9345,92.52475248,20.2164488,100.3792935
T572,เชียงราย,Chiang Rai,57,เวียงแก่น,เทศบาลตำบลคลองโยง,84,7114,84.69047619,20.1063732,100.5156229
T573,เชียงราย,Chiang Rai,57,เวียงแก่น,เทศบาลตำบลคลองใหญ่,76,3419,44.98684211,20.1046063,100.5043098
T574,เชียงราย,Chiang Rai,57,เวียงแก่น,เทศบาลตำบลคลองใหญ่,67,5571,83.14925373,20.0557571,100.5057789
T575,เชียงราย,Chiang Rai,57,เทิง,เทศบาลตำบลคลองใหญ่,2.3,4233,1840.434783,19.6482958,100.0861318
T576,เชียงราย,Chiang Rai,57,เทิง,เทศบาลตำบลคลองไผ่,1.3,5048,3883.076923,19.6870927,100.1895325
T577,เชียงราย,Chiang Rai,57,เทิง,เทศบาลตำบลคลองขลุง,96.5,12069,125.0673575,19.6987842,100.1021316
T578,เชียงราย,Chiang Rai,57,เทิง,เทศบาลตำบลคลองขุด,59.6,4244,71.20805369,19.7274469,100.1817881
T579,เชียงราย,Chiang Rai,57,เทิง,เทศบาลตำบลคลองจิก,76.3,4432,58.08650066,19.598703,99.963961
T580,เชียงราย,Chiang Rai,57,เทิง,เทศบาลตำบลคลองชะอุ่น,88.4,9588,108.4615385,19.6806235,100.2512323
T581,เชียงราย,Chiang Rai,57,เมืองเชียงราย,เทศบาลตำบลคลองด่าน,55,10379,188.7090909,20.0253416,99.8716355
T582,เชียงราย,Chiang Rai,57,เมืองเชียงราย,เทศบาลตำบลคลองตาคต,72,10322,143.3611111,19.8492531,99.7699943
T583,เชียงราย,Chiang Rai,57,เมืองเชียงราย,เทศบาลตำบลคลองตำหรุ,71,16508,232.5070423,19.9769686,99.8321247
T584,เชียงราย,Chiang Rai,57,เมืองเชียงราย,เทศบาลตำบลคลองทรายขาาว,265.7,17748,66.79713963,19.9341604,99.7591172
T585,เชียงราย,Chiang Rai,57,เมืองเชียงราย,เทศบาลตำบลคลองท่อมใต้,53,9305,175.5660377,19.8568204,99.8156502
T586,เชียงราย,Chiang Rai,57,เมืองเชียงราย,เทศบาลตำบลคลองปราบ,81.86,13685,167.1756658,20.064421,99.874655
T587,เชียงราย,Chiang Rai,57,เมืองเชียงราย,เทศบาลตำบลคลองปาง,64,8852,138.3125,19.8513804,99.858243
T588,เชียงราย,Chiang Rai,57,เมืองเชียงราย,เทศบาลตำบลคลองพน,167.9,17161,102.2096486,19.795349,99.9063313
T589,เชียงราย,Chiang Rai,57,เมืองเชียงราย,เทศบาลตำบลคลองพนพัฒนา,113.99,10435,91.54311782,19.6837335,99.9268096
T590,เชียงราย,Chiang Rai,57,เมืองเชียงราย,เทศบาลตำบลคลองพระอุดม,61,4475,73.36065574,19.9334512,99.7546976
T591,เชียงราย,Chiang Rai,57,แม่ลาว,เทศบาลตำบลคลองพลู,60,7450,124.1666667,19.7470584,99.683026
T592,เชียงราย,Chiang Rai,57,เวียงเชียงรุ้ง,เทศบาลตำบลคลองพิไกร,7.72,4216,546.1139896,19.9929315,100.0348574
T593,เชียงราย,Chiang Rai,57,เวียงชัย,เทศบาลตำบลคลองยาง,10.5,6334,603.2380952,19.88701,99.9326709
T594,เชียงราย,Chiang Rai,57,เวียงชัย,เทศบาลตำบลคลองลานพัฒนา,46,6629,144.1086957,19.906404,99.9324037
T595,เชียงราย,Chiang Rai,57,เวียงชัย,เทศบาลตำบลคลองวาฬ,54.14,4743,87.60620613,19.891565,99.966386
T596,เชียงราย,Chiang Rai,57,เวียงชัย,เทศบาลตำบลคลองสวน,101,9843,97.45544554,19.8343286,99.9976605
T597,เชียงราย,Chiang Rai,57,เวียงชัย,เทศบาลตำบลคลองหาด,42,7499,178.547619,19.8664531,99.8906114
T598,เชียงราย,Chiang Rai,57,เวียงป่าเป้า,เทศบาลตำบลควนเนียง,2.4,3116,1298.333333,19.2112449,99.5256933
T599,เชียงราย,Chiang Rai,57,เวียงป่าเป้า,เทศบาลตำบลควนเสาธง,4.2,4692,1117.142857,19.3641319,99.502462
T600,เชียงราย,Chiang Rai,57,เวียงป่าเป้า,เทศบาลตำบลควนโดน,150,9192,61.28,19.2968427,99.511914
T601,เชียงราย,Chiang Rai,57,เวียงป่าเป้า,เทศบาลตำบลควนโพธิ์,63,9351,148.4285714,19.2332542,99.5165467
T602,เชียงราย,Chiang Rai,57,ป่าแดด,เทศบาลตำบลควนกลาง,23.3,5126,220,19.4480128,100.0243413
T603,เชียงราย,Chiang Rai,57,ป่าแดด,เทศบาลตำบลควนกุน,29,2032,70.06896552,19.4444433,99.9729636
T604,เชียงราย,Chiang Rai,57,แม่จัน,เทศบาลตำบลควนขนุน,128,15339,119.8359375,20.2245885,99.9470955
T605,เชียงราย,Chiang Rai,57,แม่จัน,เทศบาลตำบลควนศรี,5.58,4975,891.5770609,20.2174171,99.8502465
T606,เชียงราย,Chiang Rai,57,แม่จัน,เทศบาลตำบลคอแลน,2,3774,1887,20.1392988,99.8573263
T607,เชียงราย,Chiang Rai,57,แม่จัน,เทศบาลตำบลคอกช้าง,4,2496,624,20.1730964,99.8870935
T608,เชียงราย,Chiang Rai,57,แม่จัน,เทศบาลตำบลคอนสวรรค์,41.6,10353,248.8701923,20.1825886,99.8321768
T609,เชียงราย,Chiang Rai,57,แม่จัน,เทศบาลตำบลคอนสา,106.79,7421,69.49152542,20.1647875,100.0020563
T610,เชียงราย,Chiang Rai,57,แม่จัน,เทศบาลตำบลคอนสาย,22.07,5621,254.6896239,20.235567,99.890347
T611,เชียงราย,Chiang Rai,57,แม่จัน,เทศบาลตำบลคอนสาร,12,8460,705,20.2502776,99.8577733
T612,เชียงราย,Chiang Rai,57,แม่ลาว,เทศบาลตำบลค้อวัง,8.3,3975,478.9156627,19.778048,99.7408015
T613,เชียงราย,Chiang Rai,57,แม่ลาว,เทศบาลตำบลค่ายเนินวง,5,1959,391.8,19.778048,99.7408015
T614,เชียงราย,Chiang Rai,57,แม่สรวย,เทศบาลตำบลคำเขื่อนแก้ว,1,1451,1451,19.6520867,99.5394481
T615,เชียงราย,Chiang Rai,57,แม่สรวย,เทศบาลตำบลคำเตย,8.31,5014,603.3694344,19.5753265,99.4861985
T616,เชียงราย,Chiang Rai,57,แม่สรวย,เทศบาลตำบลคำเหมือดแก้ว,150.15,7457,49.66366966,19.65932,99.53624
T617,เชียงราย,Chiang Rai,57,แม่สาย,เทศบาลตำบลคำใหญ่,5.13,19569,3814.619883,20.4265249,99.8842641
T618,เชียงราย,Chiang Rai,57,แม่สาย,เทศบาลตำบลคำก้าว,4,4696,1174,20.2746895,99.8626266
T619,เชียงราย,Chiang Rai,57,แม่สาย,เทศบาลตำบลคำขวาง,31,11364,366.5806452,20.4034082,99.8854225
T620,เชียงราย,Chiang Rai,57,แม่สาย,เทศบาลตำบลคำชะอี,20,9306,465.3,20.437414,99.9124295
T621,เชียงราย,Chiang Rai,57,ขุนตาล,เทศบาลตำบลคำตากล้า,3.61,6447,1785.872576,19.8657628,100.2824483
T622,เชียงราย,Chiang Rai,57,ขุนตาล,เทศบาลตำบลคำน้ำแซบ,72.25,7837,108.4705882,19.8332546,100.2570171
T623,เชียงราย,Chiang Rai,57,ขุนตาล,เทศบาลตำบลคำบง,132.2,11380,86.0816944,19.9223362,100.3057221
T624,เชียงราย,Chiang Rai,57,ป่าแดด,เทศบาลตำบลคำบง,153.21,7871,51.37393121,19.5633443,99.9619547
T625,เชียงราย,Chiang Rai,57,ป่าแดด,เทศบาลตำบลคำบ่อ,20,6408,320.4,19.4480128,100.0243413
T626,เชียงราย,Chiang Rai,57,ป่าแดด,เทศบาลตำบลคำป่าหลาย,44.6,4781,107.1973094,19.4948636,99.9590072
T627,เชียงราย,Chiang Rai,57,พญาเม็งราย,เทศบาลตำบลคำพราน,10.5,4327,412.0952381,19.8666314,100.1572322
T628,เชียงราย,Chiang Rai,57,พญาเม็งราย,เทศบาลตำบลคำพอุง,131,10845,82.78625954,19.7306582,100.1179988
T629,เชียงราย,Chiang Rai,57,พญาเม็งราย,เทศบาลตำบลคำม่วง,90.41,6356,70.30195775,19.8666314,100.1572322
T630,เชียงราย,Chiang Rai,57,พาน,เทศบาลตำบลคำอาฮวน,2.38,6819,2865.12605,19.5477471,99.7457927
T631,เชียงราย,Chiang Rai,57,พาน,เทศบาลตำบลคึกคัก,94,10438,111.0425532,19.6103445,99.8448813
T632,ตรัง,Trang,92,เมืองตรัง,เทศบาลตำบลคุ้งตะเภา,11.04,3694,334.6014493,7.6404118,99.5876103
T633,ตรัง,Trang,92,เมืองตรัง,เทศบาลตำบลคุ้งสำเภา,20,12232,611.6,7.5125341,99.6139179
T634,ตรัง,Trang,92,เมืองตรัง,เทศบาลตำบลคุระบุรี,14.8,6596,445.6756757,7.5912476,99.5947661
T635,ตรัง,Trang,92,นาโยง,เทศบาลตำบลคูเต่า,1.95,3748,1922.051282,7.5641675,99.6943959
T636,ตรัง,Trang,92,ปะเหลียน,เทศบาลตำบลคูเมือง,2.1,1599,761.4285714,7.1707678,99.6870483
T637,ตรัง,Trang,92,ปะเหลียน,เทศบาลตำบลคูเมือง,2,2390,1195,7.2091173,99.7107359
T638,ตรัง,Trang,92,ปะเหลียน,เทศบาลตำบลคูขวาง,13,3468,266.7692308,7.3478651,99.6709088
T639,ตรัง,Trang,92,ย่านตาขาว,เทศบาลตำบลคูสะคาม,28.4,7617,268.2042254,7.3769864,99.6735796
T640,ตรัง,Trang,92,ย่านตาขาว,เทศบาลตำบลคูหาใต้,61.6,8215,133.3603896,7.41307,99.6397733
T641,ตรัง,Trang,92,ย่านตาขาว,เทศบาลตำบลฆ้องชัยพัฒนา,18.2,3848,211.4285714,7.415289,99.666272
T642,ตรัง,Trang,92,รัษฎา,เทศบาลตำบลงอบ,2.78,2329,837.7697842,8.0096536,99.6425613
T643,ตรัง,Trang,92,วังวิเศษ,เทศบาลตำบลงิม,4.73,3035,641.6490486,7.7351174,99.3973442
T644,ตรัง,Trang,92,สิเกา,เทศบาลตำบลงิ้ว,9.85,2128,216.0406091,7.731184,99.322705
T645,ตรัง,Trang,92,สิเกา,เทศบาลตำบลงิ้วงาม,4.5,1360,302.2222222,7.5787262,99.3407291
T646,ตรัง,Trang,92,สิเกา,เทศบาลตำบลงิ้วด่อน,102.14,5161,50.52868612,7.562631,99.458885
T647,ตรัง,Trang,92,ห้วยยอด,เทศบาลตำบลจตุรพักตรพิมาน,12.8,3770,294.53125,7.7611742,99.515614
T648,ตรัง,Trang,92,ห้วยยอด,เทศบาลตำบลจรเข้สามพัน,31.7,5960,188.0126183,7.8858553,99.5804134
T649,ตรัง,Trang,92,ห้วยยอด,เทศบาลตำบลจระเข้หิน,8.8,3493,396.9318182,7.6897245,99.5890595
T650,ตรัง,Trang,92,ห้วยยอด,เทศบาลตำบลจริม,6.11,8320,1361.702128,7.7891969,99.6328555
T651,ตรัง,Trang,92,ห้วยยอด,เทศบาลตำบลจองถนน,49.51,4797,96.88951727,7.834313,99.6489519
T652,ตราด,Trat,23,เกาะช้าง,เทศบาลตำบลจอมทอง,172.33,4809,27.9057622,12.1034063,102.3522033
T653,ตราด,Trat,23,เขาสมิง,เทศบาลตำบลจอมทอง,1.54,1705,1107.142857,12.354234,102.435354
T654,ตราด,Trat,23,เขาสมิง,เทศบาลตำบลจอมบึง,9.18,3280,357.2984749,12.3819257,102.381289
T655,ตราด,Trat,23,เมือง,เทศบาลตำบลจอมพระ,79.5,2610,32.83018868,12.2287071,102.6416397
T656,ตราด,Trat,23,เมือง,เทศบาลตำบลจอมพลเจ้าพระยา,65,2566,39.47692308,12.1983288,102.6617144
T657,ตราด,Trat,23,เมืองตราด,เทศบาลตำบลจอหอ,41,6578,160.4390244,12.2549613,102.5585452
T658,ตราด,Trat,23,เมืองตราด,เทศบาลตำบลจะนะ,23,6874,298.8695652,12.2127888,102.511452
T659,ตราด,Trat,23,แหลมงอบ,เทศบาลตำบลจักราช,14.15,3521,248.8339223,12.189572,102.462829
T660,ตราด,Trat,23,แหลมงอบ,เทศบาลตำบลจังหาร,1.2,1840,1533.333333,12.1785415,102.4079814
T661,ตราด,Trat,23,คลองใหญ่,เทศบาลตำบลจัตุรัส,2.5,5035,2014,11.7907511,102.8773712
T662,ตราด,Trat,23,คลองใหญ่,เทศบาลตำบลจันจว้า,17.21,4140,240.5578152,11.7338973,102.901294
T663,ตราด,Trat,23,บ่อไร่,เทศบาลตำบลจันดี,7.55,8957,1186.357616,12.5727572,102.5366597
T664,ตราด,Trat,23,บ่อไร่,เทศบาลตำบลจันดุม,116,7767,66.95689655,12.6766157,102.4590168
T665,ตาก,Tak,63,เมืองตาก,เทศบาลตำบลจันทเขลม,40.63,11088,272.9017967,16.9097569,99.0986371
T666,ตาก,Tak,63,เมืองตาก,เทศบาลตำบลจันทบเพชร,93.16,6219,66.75611851,16.8228685,99.1293661
T667,ตาก,Tak,63,แม่ระมาด,เทศบาลตำบลจานแสนไชย,2.55,5630,2207.843137,17.020719,98.549662
T668,ตาก,Tak,63,แม่ระมาด,เทศบาลตำบลจำปาขัน,1.9,4128,2172.631579,16.9627845,98.5807524
T669,ตาก,Tak,63,แม่ระมาด,เทศบาลตำบลจำปี,88.47,5761,65.11811914,16.9275489,98.5682802
T670,ตาก,Tak,63,แม่สอด,เทศบาลตำบลจุน,10.1,13188,1305.742574,16.7101582,98.5394589
T671,ตาก,Tak,63,แม่สอด,เทศบาลตำบลจุมจัง,8.32,6082,731.0096154,16.6491234,98.5982823
T672,ตาก,Tak,63,แม่สอด,เทศบาลตำบลฉมัน,175.23,6503,37.11122525,16.6782087,98.5666737
T673,ตาก,Tak,63,ท่าสองยาง,เทศบาลตำบลฉลอง,2.75,2551,927.6363636,17.2328945,98.2348917
T674,ตาก,Tak,63,บ้านตาก,เทศบาลตำบลฉลุง,153.56,6119,39.84761657,17.0153057,99.0054034
T675,ตาก,Tak,63,บ้านตาก,เทศบาลตำบลฉวาง,6.2,7000,1129.032258,17.0500274,99.0741873
T676,ตาก,Tak,63,พบพระ,เทศบาลตำบลชนแดน,6.5,5288,813.5384615,16.3864763,98.6925161
T677,ตาก,Tak,63,วังเจ้า,เทศบาลตำบลชนบท,7.85,4367,556.3057325,16.685996,99.2544687
T678,ตาก,Tak,63,สามเงา,เทศบาลตำบลชมภู,7.7,4940,641.5584416,17.2255399,99.0508612
T679,ตาก,Tak,63,อุ้มผาง,เทศบาลตำบลชมสะอาด,0.6,1667,2778.333333,16.0184778,98.8652048
T680,ตาก,Tak,63,อุ้มผาง,เทศบาลตำบลชลบถวิบูลย์,1240,12107,9.763709677,16.0326771,98.6672691
T681,ตาก,Tak,63,อุ้มผาง,เทศบาลตำบลช่อแฮ,305,4522,14.82622951,16.0520199,98.841918
T682,นครนายก,Nakhon Nayok,26,เมืองนครนายก,เทศบาลตำบลช่องเม็ก,1,1077,1077,14.1873579,101.163683
T683,นครนายก,Nakhon Nayok,26,บ้านนา,เทศบาลตำบลช่องแค,2.5,5469,2187.6,14.2613322,101.0697615
T684,นครนายก,Nakhon Nayok,26,บ้านนา,เทศบาลตำบลช่องแมว,20.8,5306,255.0961538,14.2392356,101.072917
T685,นครนายก,Nakhon Nayok,26,ปากพลี,เทศบาลตำบลช่องลม,2,1949,974.5,14.1760711,101.2693842
T686,นครนายก,Nakhon Nayok,26,องครักษ์,เทศบาลตำบลชะเมา,1.36,2873,2112.5,14.121411,101.004197
T687,นครปฐม,Nakhon Pathom,73,เมืองนครปฐม,เทศบาลตำบลชะแล้,4.64,6577,1417.456897,13.7249566,100.0817716
T688,นครปฐม,Nakhon Pathom,73,เมืองนครปฐม,เทศบาลตำบลชะโนด,3.64,7262,1995.054945,13.8119973,100.1145558
T689,นครปฐม,Nakhon Pathom,73,เมืองนครปฐม,เทศบาลตำบลชะมาย,14.8,10482,708.2432432,13.821244,99.9927258
T690,นครปฐม,Nakhon Pathom,73,เมืองนครปฐม,เทศบาลตำบลชะรัด,4.2,8954,2131.904762,13.8439615,100.0688403
T691,นครปฐม,Nakhon Pathom,73,เมืองนครปฐม,เทศบาลตำบลชะอวด,20.15,8136,403.7717122,13.8640245,100.0759536
T692,นครปฐม,Nakhon Pathom,73,กำแพงเสน,เทศบาลตำบลชัยนาท,3.5,6910,1974.285714,13.9992246,99.9922306
T693,นครปฐม,Nakhon Pathom,73,ดอนตูม,เทศบาลตำบลชัยวารี,4.4,13539,3077.045455,13.9610131,100.0818148
T694,นครปฐม,Nakhon Pathom,73,นครชัยศรี,เทศบาลตำบลชากไทย,4.54,8156,1796.475771,13.8005229,100.1869069
T695,นครปฐม,Nakhon Pathom,73,นครชัยศรี,เทศบาลตำบลชากบก,1.08,2067,1913.888889,13.8677026,100.2092788
T696,นครปฐม,Nakhon Pathom,73,นครชัยศรี,เทศบาลตำบลช้างเผือก,10.8,7397,684.9074074,13.7822511,100.2272663
T697,นครปฐม,Nakhon Pathom,73,บางเลน,เทศบาลตำบลช้างขวา,13.5,7999,592.5185185,14.0237283,100.1656811
T698,นครปฐม,Nakhon Pathom,73,บางเลน,เทศบาลตำบลช้างข้าม,0.67,2326,3471.641791,14.117204,100.1127816
T699,นครปฐม,Nakhon Pathom,73,บางเลน,เทศบาลตำบลช้างซ้าย,4,2314,578.5,14.0292606,100.2201967
T700,นครปฐม,Nakhon Pathom,73,บางเลน,เทศบาลตำบลชานุมาน,4,1972,493,13.9557504,100.2087042
T701,นครปฐม,Nakhon Pathom,73,พุทธมณฑล,เทศบาลตำบลชำฆ้อ,13.5,11430,846.6666667,13.8022605,100.3208589
T702,นครปฐม,Nakhon Pathom,73,พุทธมณฑล,เทศบาลตำบลชำนิ,31.63,8549,270.2813784,13.8820361,100.2879553
T703,นครปฐม,Nakhon Pathom,73,สามพราน,เทศบาลตำบลชำราก,12,23409,1950.75,13.7034945,100.2651932
T704,นครปฐม,Nakhon Pathom,73,สามพราน,เทศบาลตำบลชีลอง,12.85,10796,840.155642,0,0
T705,นครพนม,Nakhon Phanom,48,เมืองนครพนม,เทศบาลตำบลชุมแสง,78.43,10794,137.6259085,17.377508,104.7373011
T706,นครพนม,Nakhon Phanom,48,เรณูนคร,เทศบาลตำบลชุมโค,2.4,4877,2032.083333,17.0531543,104.6787298
T707,นครพนม,Nakhon Phanom,48,โพนสวรรค์,เทศบาลตำบลชุมพร,9.17,5560,606.3249727,17.4585078,104.4730969
T708,นครพนม,Nakhon Phanom,48,ท่าอุเทน,เทศบาลตำบลชุมพล,18.5,4955,267.8378378,17.5722724,104.609288
T709,นครพนม,Nakhon Phanom,48,ท่าอุเทน,เทศบาลตำบลชุมพลบุรี,51.2,6042,118.0078125,17.530104,104.6662247
T710,นครพนม,Nakhon Phanom,48,ธาตุพนม,เทศบาลตำบลชุมพวง,4.6,10844,2357.391304,16.9497896,104.7286454
T711,นครพนม,Nakhon Phanom,48,ธาตุพนม,เทศบาลตำบลซับสมอทอด,64,12201,190.640625,16.9088454,104.7315267
T712,นครพนม,Nakhon Phanom,48,ธาตุพนม,เทศบาลตำบลซาง,19,6929,364.6842105,16.9296149,104.6742069
T713,นครพนม,Nakhon Phanom,48,ธาตุพนม,เทศบาลตำบลซำสูง,16.41,5608,341.7428397,16.9386542,104.7049263
T714,นครพนม,Nakhon Phanom,48,ธาตุพนม,เทศบาลตำบลซึ้ง,31,5544,178.8387097,16.9241395,104.6428644
T715,นครพนม,Nakhon Phanom,48,นาแก,เทศบาลตำบลดงเจน,5.01,4574,912.9740519,16.9469282,104.4931957
T716,นครพนม,Nakhon Phanom,48,นาแก,เทศบาลตำบลดงเย็น,35,7339,209.6857143,17.013567,104.564676
T717,นครพนม,Nakhon Phanom,48,นาหว้า,เทศบาลตำบลดงแคนใหญ่,24.5,12160,496.3265306,17.46955,104.102375
T718,นครพนม,Nakhon Phanom,48,นาหว้า,เทศบาลตำบลดงแดง,31,5813,187.516129,17.516499,104.0658484
T719,นครพนม,Nakhon Phanom,48,บ้านแพง,เทศบาลตำบลดงขุย,16.46,9176,557.472661,17.9668811,104.2132285
T720,นครพนม,Nakhon Phanom,48,ปลาปาก,เทศบาลตำบลดงคอน,12.1,3865,319.4214876,17.179458,104.5274608
T721,นครพนม,Nakhon Phanom,48,ศรีสงคราม,เทศบาลตำบลดงดำ,4,5379,1344.75,17.627663,104.261198
T722,นครพนม,Nakhon Phanom,48,ศรีสงคราม,เทศบาลตำบลดงป่าคำ,113.64,7003,61.62442802,17.6424149,104.1224759
T723,นครพนม,Nakhon Phanom,48,ศรีสงคราม,เทศบาลตำบลดงมอน,59.49,9779,164.3805682,17.6423897,104.3448884
T724,นครพนม,Nakhon Phanom,48,ศรีสงคราม,เทศบาลตำบลดงมะไฟ,58.13,8432,145.0541889,17.7133951,104.1460327
T725,นครพนม,Nakhon Phanom,48,ศรีสงคราม,เทศบาลตำบลดงมะดะ,68,5083,74.75,17.6875993,104.2866462
T726,นครราชสีมา,Nakhon Ratchasima,30,เฉลิมพระเกียรติ,เทศบาลตำบลดงมะยาง,8,5015,626.875,15.0025237,102.2711365
T727,นครราชสีมา,Nakhon Ratchasima,30,เมืองนครราชสีมา,เทศบาลตำบลดงมูล,43.44,5984,137.7532228,15.1095408,102.1858831
T728,นครราชสีมา,Nakhon Ratchasima,30,เมืองนครราชสีมา,เทศบาลตำบลดงลิง,16.63,9527,572.8803367,14.9122985,102.067867
T729,นครราชสีมา,Nakhon Ratchasima,30,เมืองนครราชสีมา,เทศบาลตำบลดงสมบูรณ์,3,7018,2339.333333,14.9254569,101.9628074
T730,นครราชสีมา,Nakhon Ratchasima,30,เมืองนครราชสีมา,เทศบาลตำบลดงสิงห์,9,15428,1714.222222,15.035644,102.1369699
T731,นครราชสีมา,Nakhon Ratchasima,30,เมืองนครราชสีมา,เทศบาลตำบลดงหลวง,17,20090,1181.764706,14.9373054,102.0889679
T732,นครราชสีมา,Nakhon Ratchasima,30,เมืองนครราชสีมา,เทศบาลตำบลดอกไม้,15.95,25314,1587.084639,14.9633442,102.1344383
T733,นครราชสีมา,Nakhon Ratchasima,30,เมืองนครราชสีมา,เทศบาลตำบลดอนเกาะกา,55.23,26377,477.584646,14.9276718,102.1063183
T734,นครราชสีมา,Nakhon Ratchasima,30,เมืองนครราชสีมา,เทศบาลตำบลดอนเขือง,30.56,9968,326.1780105,15.0914337,102.1061105
T735,นครราชสีมา,Nakhon Ratchasima,30,เมืองนครราชสีมา,เทศบาลตำบลดอนเจดีย์,64.17,12972,202.1505376,14.9254569,101.9628074
T736,นครราชสีมา,Nakhon Ratchasima,30,เมืองนครราชสีมา,เทศบาลตำบลดอนเจดีย์,49.38,16534,334.8319158,14.8828589,102.0223914
T737,นครราชสีมา,Nakhon Ratchasima,30,เมืองนครราชสีมา,เทศบาลตำบลดอนแก้ว,79.09,7102,89.79643444,14.8543721,102.0672018
T738,นครราชสีมา,Nakhon Ratchasima,30,เมืองนครราชสีมา,เทศบาลตำบลดอนโมง,44.36,9024,203.4265104,15.0370493,102.1902098
T739,นครราชสีมา,Nakhon Ratchasima,30,เมืองนครราชสีมา,เทศบาลตำบลดอนไก่ดี,19.55,17825,911.7647059,14.9630081,102.0312789
T740,นครราชสีมา,Nakhon Ratchasima,30,เมืองนครราชสีมา,เทศบาลตำบลดอนกำ,39.46,9677,245.2356817,15.0288769,102.0390343
T741,นครราชสีมา,Nakhon Ratchasima,30,เมืองนครราชสีมา,เทศบาลตำบลดอนขมิ้น,22.2,6547,294.9099099,15.0329365,102.1682383
T742,นครราชสีมา,Nakhon Ratchasima,30,เมืองยาง,เทศบาลตำบลดอนจาน,68.54,8222,119.9591479,15.4273569,102.8744945
T743,นครราชสีมา,Nakhon Ratchasima,30,เสิงสาง,เทศบาลตำบลดอนฉิมพลี,4,5960,1490,14.3535498,102.4306653
T744,นครราชสีมา,Nakhon Ratchasima,30,เสิงสาง,เทศบาลตำบลดอนตรอ,13,7695,591.9230769,14.4243421,102.4583399
T745,นครราชสีมา,Nakhon Ratchasima,30,โชคชัย,เทศบาลตำบลดอนตาล,4,12590,3147.5,14.741326,102.1648907
T746,นครราชสีมา,Nakhon Ratchasima,30,โชคชัย,เทศบาลตำบลดอนตาลผาสุก,10.17,9389,923.2055064,14.727197,102.2325189
T747,นครราชสีมา,Nakhon Ratchasima,30,โชคชัย,เทศบาลตำบลดอนทราย,80,10559,131.9875,14.7298363,102.2321813
T748,นครราชสีมา,Nakhon Ratchasima,30,โนนแดง,เทศบาลตำบลดอนทราย,47,4474,95.19148936,15.5020727,102.5615021
T749,นครราชสีมา,Nakhon Ratchasima,30,โนนแดง,เทศบาลตำบลดอนทราย,6,4600,766.6666667,15.4144963,102.550285
T750,นครราชสีมา,Nakhon Ratchasima,30,โนนไทย,เทศบาลตำบลดอนประดู่,9.66,5429,562.0082816,15.259712,102.027338
T751,นครราชสีมา,Nakhon Ratchasima,30,โนนไทย,เทศบาลตำบลดอนพุด,1.75,3418,1953.142857,15.1951274,102.0703205
T752,นครราชสีมา,Nakhon Ratchasima,30,โนนไทย,เทศบาลตำบลดอนมนต์,85.35,7883,92.36086702,15.2254535,101.911213
T753,นครราชสีมา,Nakhon Ratchasima,30,โนนสูง,เทศบาลตำบลดอนยายหอม,6.89,3587,520.6095791,15.2582754,102.4143173
T754,นครราชสีมา,Nakhon Ratchasima,30,โนนสูง,เทศบาลตำบลดอนศิลา,12.95,9853,760.8494208,15.1805822,102.2575235
T755,นครราชสีมา,Nakhon Ratchasima,30,โนนสูง,เทศบาลตำบลดอนหญ้านาง,4.85,1884,388.4536082,15.2811983,102.2993962
T756,นครราชสีมา,Nakhon Ratchasima,30,โนนสูง,เทศบาลตำบลดอนหวาย,20.49,3524,171.9863348,15.1165026,102.2830406
T757,นครราชสีมา,Nakhon Ratchasima,30,โนนสูง,เทศบาลตำบลดอนหัวฬ่อ,66.46,12232,184.0505567,15.1394617,102.2681437
T758,นครราชสีมา,Nakhon Ratchasima,30,โนนสูง,เทศบาลตำบลดอนอะราง,29,8516,293.6551724,15.1487375,102.2147425
T759,นครราชสีมา,Nakhon Ratchasima,30,ขามทะเลสอ,เทศบาลตำบลดอยแก้ว,5.18,4119,795.1737452,14.9608979,101.9690458
T760,นครราชสีมา,Nakhon Ratchasima,30,ขามทะเลสอ,เทศบาลตำบลดอยลาน,40,5355,133.875,15.0588573,101.9633386
T761,นครราชสีมา,Nakhon Ratchasima,30,ขามสะแกแสง,เทศบาลตำบลดอยสะเก็ด,3.11,5420,1742.765273,15.3575998,102.1804261
T762,นครราชสีมา,Nakhon Ratchasima,30,ขามสะแกแสง,เทศบาลตำบลดอยฮาง,6.41,4809,750.2340094,15.4301903,102.220463
T763,นครราชสีมา,Nakhon Ratchasima,30,ขามสะแกแสง,เทศบาลตำบลด่านเกวียน,35.45,3984,112.3836389,15.413485,102.1061105
T764,นครราชสีมา,Nakhon Ratchasima,30,คง,เทศบาลตำบลด่านขุนทด,5.2,2867,551.3461538,15.3436837,102.4438546
T765,นครราชสีมา,Nakhon Ratchasima,30,คง,เทศบาลตำบลด่านคล้า,3.15,2420,768.2539683,15.4468161,102.334934
T766,นครราชสีมา,Nakhon Ratchasima,30,ครบุรี,เทศบาลตำบลด่านช้าง,7,6192,884.5714286,14.36984,102.0946818
T767,นครราชสีมา,Nakhon Ratchasima,30,ครบุรี,เทศบาลตำบลด่านซ้าย,2.7,6036,2235.555556,14.5433173,102.2776838
T768,นครราชสีมา,Nakhon Ratchasima,30,ครบุรี,เทศบาลตำบลด่านทับตะโก,5.78,3691,638.5813149,14.5910168,102.1425169
T769,นครราชสีมา,Nakhon Ratchasima,30,ครบุรี,เทศบาลตำบลด่านมะขามเตี้ย,47.2,5910,125.2118644,14.5589875,102.197583
T770,นครราชสีมา,Nakhon Ratchasima,30,ครบุรี,เทศบาลตำบลด่านสำโรง,91.6,7642,83.4279476,14.4950931,102.1061105
T771,นครราชสีมา,Nakhon Ratchasima,30,จักรราช,เทศบาลตำบลดำเนินสะดวก,4,3940,985,15.0114059,102.4139581
T772,นครราชสีมา,Nakhon Ratchasima,30,ชุมพวง,เทศบาลตำบลดินดำ,9.11,9353,1026.673985,15.354014,102.7470974
T773,นครราชสีมา,Nakhon Ratchasima,30,ด่านขุนทด,เทศบาลตำบลดีลัง,4.39,6550,1492.027335,15.1905795,101.7589609
T774,นครราชสีมา,Nakhon Ratchasima,30,ด่านขุนทด,เทศบาลตำบลดู่ใต้,8.24,4092,496.6019417,15.3555994,101.6840589
T775,นครราชสีมา,Nakhon Ratchasima,30,ด่านขุนทด,เทศบาลตำบลตกพรม,70.75,8764,123.8727915,15.2901518,101.8321561
T776,นครราชสีมา,Nakhon Ratchasima,30,บัวลาย,เทศบาลตำบลต้นไทร,3.03,2572,848.8448845,15.6652904,102.5412761
T777,นครราชสีมา,Nakhon Ratchasima,30,บัวใหญ่,เทศบาลตำบลต้นคราม,46.4,6758,145.6465517,15.5875526,102.2891314
T778,นครราชสีมา,Nakhon Ratchasima,30,บ้านเหลื่อม,เทศบาลตำบลต้นตาล-พระยาทด,3.25,3694,1136.615385,15.6195755,102.1289715
T779,นครราชสีมา,Nakhon Ratchasima,30,แก้วสนามนาง,เทศบาลตำบลต้นธง,43,5499,127.8837209,15.7079559,102.197583
T780,นครราชสีมา,Nakhon Ratchasima,30,ประทาย,เทศบาลตำบลต้นธงชัย,4.8,6356,1324.166667,15.5334573,102.7307497
T781,นครราชสีมา,Nakhon Ratchasima,30,ปักธงชัย,เทศบาลตำบลตรอน,12.62,5355,424.3264659,14.6624386,101.8798981
T782,นครราชสีมา,Nakhon Ratchasima,30,ปักธงชัย,เทศบาลตำบลตระการพืชผล,84.6,4706,55.62647754,14.5526729,101.8777664
T783,นครราชสีมา,Nakhon Ratchasima,30,ปักธงชัย,เทศบาลตำบลตลาด,49,3639,74.26530612,14.6202596,101.900579
T784,นครราชสีมา,Nakhon Ratchasima,30,ปักธงชัย,เทศบาลตำบลตลาดเกรียบ,60,6001,100.0166667,14.6819253,102.0375565
T785,นครราชสีมา,Nakhon Ratchasima,30,ปักธงชัย,เทศบาลตำบลตลาดเขต,19.52,4337,222.182377,14.7244149,102.0247137
T786,นครราชสีมา,Nakhon Ratchasima,30,ปากช่อง,เทศบาลตำบลตลาดแค,14.11,5154,365.2728561,14.636387,101.258681
T787,นครราชสีมา,Nakhon Ratchasima,30,ปากช่อง,เทศบาลตำบลตลาดแร้ง,132.4,12351,93.28549849,14.5095707,101.3775321
T788,นครราชสีมา,Nakhon Ratchasima,30,ปากช่อง,เทศบาลตำบลตลาดใหญ่,185.49,8203,44.22340827,14.6363912,101.2581297
T789,นครราชสีมา,Nakhon Ratchasima,30,ปากช่อง,เทศบาลตำบลตลาดไชยา,134.34,11332,84.35313384,14.7053133,101.5816534
T790,นครราชสีมา,Nakhon Ratchasima,30,พระทองคำ,เทศบาลตำบลตลาดขวัญ,7.5,4488,598.4,15.3058338,101.9690458
T791,นครราชสีมา,Nakhon Ratchasima,30,พระทองคำ,เทศบาลตำบลตลาดน้อย,48.8,3818,78.23770492,15.3058338,101.9690458
T792,นครราชสีมา,Nakhon Ratchasima,30,พิมาย,เทศบาลตำบลตลาดนิคมปราสาท,2.16,8862,4102.777778,15.2158899,102.4935224
T793,นครราชสีมา,Nakhon Ratchasima,30,พิมาย,เทศบาลตำบลตลิ่งชัน,74.34,14448,194.3502825,15.1810409,102.5642261
T794,นครราชสีมา,Nakhon Ratchasima,30,ลำทะเมนชัย,เทศบาลตำบลตลุก,8.25,4553,551.8787879,15.3563426,102.9107987
T795,นครราชสีมา,Nakhon Ratchasima,30,ลำทะเมนชัย,เทศบาลตำบลตลุกดู่,51.77,3898,75.29457215,15.3613798,102.870947
T796,นครราชสีมา,Nakhon Ratchasima,30,ลำทะเมนชัย,เทศบาลตำบลตองโขบ,35.5,4782,134.7042254,15.3483249,102.9493104
T797,นครราชสีมา,Nakhon Ratchasima,30,ลำทะเมนชัย,เทศบาลตำบลตอหลัง,110.6,7031,63.57142857,15.2187306,102.9195113
T798,นครราชสีมา,Nakhon Ratchasima,30,ลำทะเมนชัย,เทศบาลตำบลตะเคียนเตี้ย,94,12132,129.0638298,15.2480776,102.9024134
T799,นครราชสีมา,Nakhon Ratchasima,30,วังน้ำเขียว,เทศบาลตำบลตะเคียนทอง,2.37,1938,817.721519,14.3784936,101.8696464
T800,นครราชสีมา,Nakhon Ratchasima,30,สีคิ้ว,เทศบาลตำบลตะโหมด,7.68,3673,478.2552083,14.8494603,101.5695261
T801,นครราชสีมา,Nakhon Ratchasima,30,สีคิ้ว,เทศบาลตำบลตะกาง,7.54,4091,542.5729443,14.852449,101.6573035
T802,นครราชสีมา,Nakhon Ratchasima,30,สีคิ้ว,เทศบาลตำบลตะกุด,102,12742,124.9215686,14.9322453,101.5153322
T803,นครราชสีมา,Nakhon Ratchasima,30,สีดา,เทศบาลตำบลตะขบ,9.85,3826,388.4263959,15.5412214,102.5658472
T804,นครราชสีมา,Nakhon Ratchasima,30,สูงเนิน,เทศบาลตำบลตะค่า,5.92,2716,458.7837838,14.9119667,101.9056749
T805,นครราชสีมา,Nakhon Ratchasima,30,สูงเนิน,เทศบาลตำบลตันหยง,12.38,10022,809.5315024,14.8962876,101.8164611
T806,นครราชสีมา,Nakhon Ratchasima,30,หนองบุญมาก,เทศบาลตำบลตันหยงมัส,93.99,8821,93.85040962,14.7240681,102.3234816
T807,นครราชสีมา,Nakhon Ratchasima,30,หนองบุญมาก,เทศบาลตำบลตาเกา,60.22,5965,99.05347061,14.7819744,102.3120304
T808,นครราชสีมา,Nakhon Ratchasima,30,ห้วยแถลง,เทศบาลตำบลตากฟ้า,2.62,3435,1311.068702,14.9693841,102.6560717
T809,นครราชสีมา,Nakhon Ratchasima,30,ห้วยแถลง,เทศบาลตำบลตาจง,7.5,2778,370.4,15.0055997,102.5683875
T810,นครราชสีมา,Nakhon Ratchasima,30,ห้วยแถลง,เทศบาลตำบลตาดทอง,52,4414,84.88461538,15.0138164,102.7498356
T811,นครศรีธรรมราช,Nakhon Si Thammarat,80,เฉลิมพระเกียรติ,เทศบาลตำบลตาพระยา,41,8655,211.097561,8.2388067,99.9800438
T812,นครศรีธรรมราช,Nakhon Si Thammarat,80,เฉลิมพระเกียรติ,เทศบาลตำบลตาลเดี่ยว,20.64,5636,273.0620155,8.2102796,100.0415603
T813,นครศรีธรรมราช,Nakhon Si Thammarat,80,เชียรใหญ่,เทศบาลตำบลตาลเลียน,1,2009,2009,8.1684083,100.1457589
T814,นครศรีธรรมราช,Nakhon Si Thammarat,80,เชียรใหญ่,เทศบาลตำบลตาลสุม,37.73,6952,184.2565598,8.0408382,100.1367166
T815,นครศรีธรรมราช,Nakhon Si Thammarat,80,เมืองนครศรีธรรมราช,เทศบาลตำบลถนนใหญ่,0.96,4341,4521.875,8.5214842,99.9443361
T816,นครศรีธรรมราช,Nakhon Si Thammarat,80,เมืองนครศรีธรรมราช,เทศบาลตำบลถอนสมอ,2.4,1820,758.3333333,8.3385014,100.0745251
T817,นครศรีธรรมราช,Nakhon Si Thammarat,80,เมืองนครศรีธรรมราช,เทศบาลตำบลถาวร,1.9,6155,3239.473684,8.4381448,100.0080005
T818,นครศรีธรรมราช,Nakhon Si Thammarat,80,เมืองนครศรีธรรมราช,เทศบาลตำบลถ้ำใหญ่,67.6,10396,153.7869822,8.4796199,99.8683073
T819,นครศรีธรรมราช,Nakhon Si Thammarat,80,เมืองนครศรีธรรมราช,เทศบาลตำบลทรายขาว,25.74,9405,365.3846154,8.418207,99.936016
T820,นครศรีธรรมราช,Nakhon Si Thammarat,80,ขนอม,เทศบาลตำบลทรายขาว,1.76,3934,2235.227273,9.1829645,99.8572864
T821,นครศรีธรรมราช,Nakhon Si Thammarat,80,ขนอม,เทศบาลตำบลทรายมูล,60,5414,90.23333333,9.287704,99.8013351
T822,นครศรีธรรมราช,Nakhon Si Thammarat,80,ขนอม,เทศบาลตำบลท้องเนียน,140.63,9249,65.76832824,9.1829645,99.8572864
T823,นครศรีธรรมราช,Nakhon Si Thammarat,80,ฉวาง,เทศบาลตำบลทองแสนขัน,33.23,7361,221.5167018,8.3948638,99.5729115
T824,นครศรีธรรมราช,Nakhon Si Thammarat,80,ฉวาง,เทศบาลตำบลทองผาภูมิ,2,2611,1305.5,8.4255294,99.5056709
T825,นครศรีธรรมราช,Nakhon Si Thammarat,80,ฉวาง,เทศบาลตำบลทอนหงส์,2.48,2418,975,8.4633467,99.4961669
T826,นครศรีธรรมราช,Nakhon Si Thammarat,80,ฉวาง,เทศบาลตำบลทะเมนชัย,55,4323,78.6,8.3954898,99.4998908
T827,นครศรีธรรมราช,Nakhon Si Thammarat,80,ช้างกลาง,เทศบาลตำบลทะเลทรัพย์,48.23,7676,159.1540535,8.3357088,99.5562219
T828,นครศรีธรรมราช,Nakhon Si Thammarat,80,ช้างกลาง,เทศบาลตำบลทะเลน้อย,62.39,5015,80.38147139,8.3996014,99.6007348
T829,นครศรีธรรมราช,Nakhon Si Thammarat,80,ชะอวด,เทศบาลตำบลทับไทร,0.5,4047,8094,7.9654062,99.9989543
T830,นครศรีธรรมราช,Nakhon Si Thammarat,80,ชะอวด,เทศบาลตำบลทับกฤช,31.98,6133,191.7761101,7.9751241,99.9632741
T831,นครศรีธรรมราช,Nakhon Si Thammarat,80,ท่าศาลา,เทศบาลตำบลทับคล้อ,1,2992,2992,8.6693581,99.923545
T832,นครศรีธรรมราช,Nakhon Si Thammarat,80,ทุ่งใหญ่,เทศบาลตำบลทับช้าง,4.01,4765,1188.279302,8.3017773,99.365769
T833,นครศรีธรรมราช,Nakhon Si Thammarat,80,ทุ่งใหญ่,เทศบาลตำบลทับปุด,44,5454,123.9545455,8.3626793,99.3340158
T834,นครศรีธรรมราช,Nakhon Si Thammarat,80,ทุ่งสง,เทศบาลตำบลทับมา,89,13445,151.0674157,8.0732236,99.6898316
T835,นครศรีธรรมราช,Nakhon Si Thammarat,80,ทุ่งสง,เทศบาลตำบลทับยา,77.96,12164,156.0287327,8.1689858,99.745565
T836,นครศรีธรรมราช,Nakhon Si Thammarat,80,ทุ่งสง,เทศบาลตำบลทับสะแก,21.42,12552,585.9943978,8.163757,99.6599595
T837,นครศรีธรรมราช,Nakhon Si Thammarat,80,ทุ่งสง,เทศบาลตำบลทัพทัน,72,14778,205.25,8.0301081,99.6898316
T838,นครศรีธรรมราช,Nakhon Si Thammarat,80,นบพิตำ,เทศบาลตำบลท่าเกษม,125.45,7408,59.05141491,8.6584965,99.7564909
T839,นครศรีธรรมราช,Nakhon Si Thammarat,80,นาบอน,เทศบาลตำบลท่าเชียงทอง,4,2779,694.75,8.247559,99.6230001
T840,นครศรีธรรมราช,Nakhon Si Thammarat,80,ปากพนัง,เทศบาลตำบลท่าเดื่อ-มืดกา,51.38,5266,102.4912417,8.2791932,100.0919243
T841,นครศรีธรรมราช,Nakhon Si Thammarat,80,ปากพนัง,เทศบาลตำบลท่าเยี่ยม,14.6,4404,301.6438356,8.3242204,100.2319757
T842,นครศรีธรรมราช,Nakhon Si Thammarat,80,ปากพนัง,เทศบาลตำบลท่าเรือ,24.64,3608,146.4285714,8.3325879,100.0635282
T843,นครศรีธรรมราช,Nakhon Si Thammarat,80,พรหมคีรี,เทศบาลตำบลท่าเรือ,9,3218,357.5555556,8.568648,99.7790227
T844,นครศรีธรรมราช,Nakhon Si Thammarat,80,พรหมคีรี,เทศบาลตำบลท่าเสด็จ,12.92,4266,330.1857585,8.5029957,99.8013351
T845,นครศรีธรรมราช,Nakhon Si Thammarat,80,พรหมคีรี,เทศบาลตำบลท่าเสา,71.18,4647,65.28519247,8.4906625,99.8411835
T846,นครศรีธรรมราช,Nakhon Si Thammarat,80,พระพรหม,เทศบาลตำบลท่าเสา,27.75,10011,360.7567568,8.3702022,99.9129845
T847,นครศรีธรรมราช,Nakhon Si Thammarat,80,พิปูน,เทศบาลตำบลท่าแค,1.26,2845,2257.936508,8.5503103,99.6452714
T848,นครศรีธรรมราช,Nakhon Si Thammarat,80,พิปูน,เทศบาลตำบลท่าแซะ,171,8078,47.23976608,8.6489018,99.6118667
T849,นครศรีธรรมราช,Nakhon Si Thammarat,80,พิปูน,เทศบาลตำบลท่าแพ,29.5,4001,135.6271186,8.530815,99.5562219
T850,นครศรีธรรมราช,Nakhon Si Thammarat,80,พิปูน,เทศบาลตำบลท่าแร่,101,5610,55.54455446,8.5842712,99.5896043
T851,นครศรีธรรมราช,Nakhon Si Thammarat,80,ร่อนพิบูลย์,เทศบาลตำบลท่าแลง,24.66,4383,177.7372263,8.1473175,99.8922272
T852,นครศรีธรรมราช,Nakhon Si Thammarat,80,ร่อนพิบูลย์,เทศบาลตำบลท่าโขลง,11.53,7764,673.3738075,8.1723001,99.8533263
T853,นครศรีธรรมราช,Nakhon Si Thammarat,80,ร่อนพิบูลย์,เทศบาลตำบลท่าไม้,13,8347,642.0769231,8.2637396,99.8459774
T854,นครศรีธรรมราช,Nakhon Si Thammarat,80,ลานสกา,เทศบาลตำบลท่าไม้รวก,2.61,1796,688.1226054,8.3677461,99.8000871
T855,นครศรีธรรมราช,Nakhon Si Thammarat,80,ลานสกา,เทศบาลตำบลท่ากว้าง,65,10126,155.7846154,8.3502415,99.8459774
T856,นครศรีธรรมราช,Nakhon Si Thammarat,80,สิชล,เทศบาลตำบลท่าก้อน,3.5,7073,2020.857143,9.0069967,99.9014963
T857,นครศรีธรรมราช,Nakhon Si Thammarat,80,สิชล,เทศบาลตำบลทากาศ,74,10742,145.1621622,9.0671244,99.8683073
T858,นครศรีธรรมราช,Nakhon Si Thammarat,80,หัวไทร,เทศบาลตำบลทากาศเหนือ,1.8,4378,2432.222222,8.0481907,100.2844671
T859,นครศรีธรรมราช,Nakhon Si Thammarat,80,หัวไทร,เทศบาลตำบลท่าขนอน,26.72,6979,261.1901198,8.101509,100.2936683
T860,นครศรีธรรมราช,Nakhon Si Thammarat,80,หัวไทร,เทศบาลตำบลท่าขนุน,30.35,8477,279.3080725,7.9635609,100.3245306
T861,นครสวรรค์,Nakhon Sawan,60,เก้าเลี้ยว,เทศบาลตำบลท่าขอนยาง,17.77,5891,331.5137873,15.8500308,100.0781188
T862,นครสวรรค์,Nakhon Sawan,60,เมืองนครสวรรค์,เทศบาลตำบลท่าข้าม,1.12,3138,2801.785714,15.765864,99.981004
T863,นครสวรรค์,Nakhon Sawan,60,โกรกพระ,เทศบาลตำบลท่าข้าม,0.72,2481,3445.833333,15.554154,100.0710323
T864,นครสวรรค์,Nakhon Sawan,60,โกรกพระ,เทศบาลตำบลท่าข้าม,42,5107,121.5952381,15.6442044,100.0324619
T865,นครสวรรค์,Nakhon Sawan,60,โกรกพระ,เทศบาลตำบลท่าข้าม,16.78,4203,250.476758,15.6013643,100.0967876
T866,นครสวรรค์,Nakhon Sawan,60,ไพศาลี,เทศบาลตำบลท่าข้าม,7.1,11084,1561.126761,15.5998654,100.6570795
T867,นครสวรรค์,Nakhon Sawan,60,ชุมแสง,เทศบาลตำบลท่าข้าวเปลือก,1.26,2263,1796.031746,15.7766885,100.2594817
T868,นครสวรรค์,Nakhon Sawan,60,ตากฟ้า,เทศบาลตำบลทาขุมเงิน,11.2,5625,502.2321429,15.3521723,100.4905195
T869,นครสวรรค์,Nakhon Sawan,60,ตากฟ้า,เทศบาลตำบลท่าคันโท,208.9,10247,49.05217808,15.4833969,100.4258853
T870,นครสวรรค์,Nakhon Sawan,60,ตาคลี,เทศบาลตำบลทางพระ,1.44,4134,2870.833333,15.1650184,100.4217271
T871,นครสวรรค์,Nakhon Sawan,60,ท่าตะโก,เทศบาลตำบลทางพูน,2.66,5871,2207.142857,15.6320439,100.4748369
T872,นครสวรรค์,Nakhon Sawan,60,บรรพตพิสัย,เทศบาลตำบลท่างิ้ว,1.07,4707,4399.065421,15.9235365,99.9872625
T873,นครสวรรค์,Nakhon Sawan,60,บรรพตพิสัย,เทศบาลตำบลท่างิ้ว,68.65,6987,101.7771304,15.951286,99.8802465
T874,นครสวรรค์,Nakhon Sawan,60,พยุหะคีรี,เทศบาลตำบลท่าจำปี,54.31,5137,94.5866323,15.4104844,100.146592
T875,นครสวรรค์,Nakhon Sawan,60,พยุหะคีรี,เทศบาลตำบลท่าจีน,1.8,6089,3382.777778,15.4556896,100.1351425
T876,นครสวรรค์,Nakhon Sawan,60,ลาดยาว,เทศบาลตำบลท่าฉาง,2.18,6859,3146.330275,15.7461224,99.7798481
T877,นครสวรรค์,Nakhon Sawan,60,ลาดยาว,เทศบาลตำบลท่าชนะ,12,3568,297.3333333,15.804652,99.667119
T878,นครสวรรค์,Nakhon Sawan,60,หนองบัว,เทศบาลตำบลท่าช้าง,6.25,12161,1945.76,15.8703009,100.596804
T879,นนทบุรี,Nonthaburi,12,เมืองนนทบุรี,เทศบาลตำบลท่าช้าง,8.14,20351,2500.12285,13.8849964,100.4660624
T880,นนทบุรี,Nonthaburi,12,ไทรน้อย,เทศบาลตำบลท่าช้าง,6.36,1892,297.4842767,13.970653,100.3414934
T881,นนทบุรี,Nonthaburi,12,บางใหญ่,เทศบาลตำบลท่าช้าง,1.67,5334,3194.011976,13.845003,100.4127288
T882,นนทบุรี,Nonthaburi,12,บางใหญ่,เทศบาลตำบลท่าช้าง,7.23,10438,1443.706777,13.8370945,100.3593195
T883,นนทบุรี,Nonthaburi,12,บางใหญ่,เทศบาลตำบลท่าช้างคล้อง,9.55,32600,3413.612565,13.8739585,100.4100314
T884,นนทบุรี,Nonthaburi,12,บางใหญ่,เทศบาลตำบลท่าชี,7.6,13254,1743.947368,13.8501687,100.4331788
T885,นนทบุรี,Nonthaburi,12,บางใหญ่,เทศบาลตำบลท่าตะโก,11.21,12337,1100.535236,13.845003,100.4127288
T886,นนทบุรี,Nonthaburi,12,บางกรวย,เทศบาลตำบลท่าตูม,9.95,36015,3619.59799,13.8080573,100.4112256
T887,นนทบุรี,Nonthaburi,12,บางกรวย,เทศบาลตำบลท่าถ่าน,14.78,10342,699.729364,13.8132414,100.3305506
T888,นนทบุรี,Nonthaburi,12,บางสีทอง,เทศบาลตำบลท่าทอง,5.8,7040,1213.793103,13.8101209,100.487592
T889,นนทบุรี,Nonthaburi,12,ปากเกร็ด,เทศบาลตำบลท่าทองใหม่,8.31,7601,914.6811071,13.9242831,100.4683116
T890,นราธิวาส,Narathiwat,96,แว้ง,เทศบาลตำบลทาทุ่งหลวง,7.04,4484,636.9318182,5.8423908,101.8843975
T891,นราธิวาส,Narathiwat,96,แว้ง,เทศบาลตำบลท่านา,4.12,5271,1279.368932,5.9338956,101.8814815
T892,นราธิวาส,Narathiwat,96,เมืองนราธิวาส,เทศบาลตำบลท่าน้ำอ้อยม่วงหัก,47.14,15361,325.859143,6.4060422,101.8658768
T893,นราธิวาส,Narathiwat,96,บาเจาะ,เทศบาลตำบลท่าบุญมี,11.8,4411,373.8135593,6.6025282,101.6325179
T894,นราธิวาส,Narathiwat,96,บาเจาะ,เทศบาลตำบลท่าประจะ,12.56,8870,706.2101911,6.5226747,101.6687746
T895,นราธิวาส,Narathiwat,96,ยี่งอ,เทศบาลตำบลท่าปลา,0.64,3075,4804.6875,6.4039941,101.701682
T896,นราธิวาส,Narathiwat,96,ระแงะ,เทศบาลตำบลทาปลาดุก,7.24,7656,1057.458564,6.2940333,101.7238435
T897,นราธิวาส,Narathiwat,96,ระแงะ,เทศบาลตำบลท่าผา,10.248,7985,779.1764247,6.3416944,101.6566372
T898,นราธิวาส,Narathiwat,96,รือเสาะ,เทศบาลตำบลท่าผา,3.11,7501,2411.897106,6.3789547,101.5078756
T899,นราธิวาส,Narathiwat,96,ศรีสาคร,เทศบาลตำบลท่าพญา,5,4614,922.8,6.2235384,101.5033836
T900,นราธิวาส,Narathiwat,96,สุไหงปาดี,เทศบาลตำบลท่าพระ,6.29,7318,1163.434022,6.0874577,101.8728532
T901,นราธิวาส,Narathiwat,96,สุไหงโก-ลก,เทศบาลตำบลท่าพระยา,38.19,18499,484.3938204,6.0523855,102.0064366
T902,นราธิวาส,Narathiwat,96,สุคิริน,เทศบาลตำบลท่าพริกเนินทราย,12.77,4035,315.9749413,5.9405798,101.7687838
T903,น่าน,Nan,55,เชียงกลาง,เทศบาลตำบลท่าพล,26,10014,385.1538462,19.2928955,100.873656
T904,น่าน,Nan,55,เชียงกลาง,เทศบาลตำบลท่าพุทรา,69.5,6759,97.25179856,19.2757035,100.8388986
T905,น่าน,Nan,55,เวียงสา,เทศบาลตำบลท่าม่วง,1,3163,3163,18.5770474,100.7379706
T906,น่าน,Nan,55,เวียงสา,เทศบาลตำบลท่าม่วง,100.5,9263,92.16915423,18.5770474,100.7379706
T907,น่าน,Nan,55,เวียงสา,เทศบาลตำบลท่ามะเขือ,94,4034,42.91489362,18.5305304,100.8338593
T908,น่าน,Nan,55,แม่จริม,เทศบาลตำบลท่ามะเดื่อ,6.5,2358,362.7692308,18.7221572,101.0083488
T909,น่าน,Nan,55,ท่าวังผา,เทศบาลตำบลท่ามะกา,30.5,5637,184.8196721,19.1209603,100.8106135
T910,น่าน,Nan,55,ทุ่งช้าง,เทศบาลตำบลท่ามะขาม,4.3,3471,807.2093023,19.4191374,100.8790171
T911,น่าน,Nan,55,ทุ่งช้าง,เทศบาลตำบลท่ามิหรำ,188.99,5555,29.39308958,19.4831078,100.8968252
T912,น่าน,Nan,55,นาน้อย,เทศบาลตำบลท้ายเหมือง,2.5,2682,1072.8,18.330899,100.741196
T913,น่าน,Nan,55,นาน้อย,เทศบาลตำบลท้ายดง,287.12,7276,25.3413207,18.330899,100.741196
T914,น่าน,Nan,55,นาหมื่น,เทศบาลตำบลท่ายาง,98,4638,47.32653061,18.1622571,100.7210593
T915,น่าน,Nan,55,ปัว,เทศบาลตำบลท่ายาง,20.5,10896,531.5121951,19.17996,100.9091776
T916,น่าน,Nan,55,ปัว,เทศบาลตำบลท่ายาง,91,3931,43.1978022,19.1451272,100.945816
T917,น่าน,Nan,55,สองแคว,เทศบาลตำบลท่าระหัด,105.2,2883,27.40494297,19.380954,100.603316
T918,น่าน,Nan,55,เมืองน่าน,เทศบาลตำบลท่าล้อ,25,8462,338.48,18.7263075,100.7428823
T919,น่าน,Nan,55,เมืองน่าน,เทศบาลตำบลท่าลาดดงยาง,22.23,5506,247.6833108,18.6929508,100.7605239
T920,น่าน,Nan,55,บ่อเกลือใต้,เทศบาลตำบลท่าลาน,416.2,4990,11.98942816,19.0767271,101.1550627
T921,บุรีรัมย์,Buri Ram,31,เฉลิมพระเกียรติ,เทศบาลตำบลท่าลี่,43.56,11940,274.1046832,14.572314,102.9092061
T922,บุรีรัมย์,Buri Ram,31,เฉลิมพระเกียรติ,เทศบาลตำบลท้าวอู่ทอง,81,8580,105.9259259,14.494727,102.9339127
T923,บุรีรัมย์,Buri Ram,31,เฉลิมพระเกียรติ,เทศบาลตำบลท่าวังตาล,101,7349,72.76237624,14.5230463,102.8629885
T924,บุรีรัมย์,Buri Ram,31,เมืองบุรีรัมย์,เทศบาลตำบลท่าวังทอง,36.89,17462,473.3532123,14.9682788,103.0981803
T925,บุรีรัมย์,Buri Ram,31,เมืองบุรีรัมย์,เทศบาลตำบลท่าวังผา,40,6637,165.925,14.8260613,103.1625005
T926,บุรีรัมย์,Buri Ram,31,เมืองบุรีรัมย์,เทศบาลตำบลท่าวุ้ง,42.68,9828,230.2717901,14.9487505,103.0417844
T927,บุรีรัมย์,Buri Ram,31,เมืองบุรีรัมย์,เทศบาลตำบลท่าศาลา,44.53,10746,241.3204581,15.0428097,103.0297028
T928,บุรีรัมย์,Buri Ram,31,แคนดง,เทศบาลตำบลท่าศาลา,12,5456,454.6666667,15.325134,103.133662
T929,บุรีรัมย์,Buri Ram,31,โนนดินแดง,เทศบาลตำบลท่าศาลา,15,9766,651.0666667,14.3121038,102.7432615
T930,บุรีรัมย์,Buri Ram,31,โนนสุวรรณ,เทศบาลตำบลท่าศิลา,2.26,3342,1478.761062,14.6064976,102.6160419
T931,บุรีรัมย์,Buri Ram,31,โนนสุวรรณ,เทศบาลตำบลทาสบเส้า,30.25,4035,133.3884298,14.6064976,102.6160419
T932,บุรีรัมย์,Buri Ram,31,กระสัง,เทศบาลตำบลทาสบชัย,1.77,3787,2139.548023,14.919585,103.301619
T933,บุรีรัมย์,Buri Ram,31,กระสัง,เทศบาลตำบลท่าสะอาด,73.075,12049,164.8853917,14.8901906,103.2285298
T934,บุรีรัมย์,Buri Ram,31,กระสัง,เทศบาลตำบลท่าสะอ้าน,60.9,12143,199.3924466,14.915843,103.366376
T935,บุรีรัมย์,Buri Ram,31,กระสัง,เทศบาลตำบลท่าสัก,70.736,11167,157.8686949,14.9219323,103.3019315
T936,บุรีรัมย์,Buri Ram,31,คูเมือง,เทศบาลตำบลท่าสาป,7.75,3689,476,15.271625,103.0002591
T937,บุรีรัมย์,Buri Ram,31,คูเมือง,เทศบาลตำบลท่าสาย,12,5137,428.0833333,15.2279103,103.0537211
T938,บุรีรัมย์,Buri Ram,31,ชำนิ,เทศบาลตำบลท่าสายลวด,32.7,4665,142.6605505,14.7860071,102.8184844
T939,บุรีรัมย์,Buri Ram,31,ชำนิ,เทศบาลตำบลท่าสีดา,36,5543,153.9722222,14.7401097,102.8346508
T940,บุรีรัมย์,Buri Ram,31,พลับพลาชัย,เทศบาลตำบลท่าสุด,68.34,10373,151.7851917,14.676779,103.133313
T941,บุรีรัมย์,Buri Ram,31,นาโพธิ์,เทศบาลตำบลท่าหลวง,18.5,3541,191.4054054,15.6318271,102.9575859
T942,บุรีรัมย์,Buri Ram,31,นางรอง,เทศบาลตำบลท่าหลวง,28.25,3294,116.6017699,14.572369,102.696204
T943,บุรีรัมย์,Buri Ram,31,บ้านใหม่ไชยพจน์,เทศบาลตำบลท่าฬ่อ,1.5,4244,2829.333333,15.5815161,102.8305756
T944,บุรีรัมย์,Buri Ram,31,บ้านกรวด,เทศบาลตำบลท่าอุเทน,12.51,4634,370.4236611,14.3922673,103.1056742
T945,บุรีรัมย์,Buri Ram,31,บ้านกรวด,เทศบาลตำบลที่วัง,2.94,3963,1347.959184,14.4356818,103.0990809
T946,บุรีรัมย์,Buri Ram,31,บ้านกรวด,เทศบาลตำบลทุ่งเสลี่ยม,65.17,8903,136.611938,14.4290828,103.0988205
T947,บุรีรัมย์,Buri Ram,31,บ้านกรวด,เทศบาลตำบลทุ่งแต้,62.16,7577,121.8951094,14.3861796,103.1682675
T948,บุรีรัมย์,Buri Ram,31,บ้านกรวด,เทศบาลตำบลทุ่งแสงทอง,60.29,9737,161.5027368,14.3929956,103.0014241
T949,บุรีรัมย์,Buri Ram,31,บ้านกรวด,เทศบาลตำบลทุ่งโฮ้ง,21.68,8350,385.1476015,14.4851236,103.1847266
T950,บุรีรัมย์,Buri Ram,31,บ้านกรวด,เทศบาลตำบลทุ่งใส,58,3564,61.44827586,14.3887296,103.1086703
T951,บุรีรัมย์,Buri Ram,31,บ้านกรวด,เทศบาลตำบลทุ่งใหญ่,64.07,6761,105.5252068,14.381643,103.054934
T952,บุรีรัมย์,Buri Ram,31,บ้านด่าน,เทศบาลตำบลทุ่งกระเชาะ,49.5,11620,234.7474747,15.1090788,103.1766554
T953,บุรีรัมย์,Buri Ram,31,บ้านด่าน,เทศบาลตำบลทุ่งกระบือ,56.4,8745,155.0531915,15.097668,103.2010116
T954,บุรีรัมย์,Buri Ram,31,ประโคนชัย,เทศบาลตำบลทุ่งกวาว,4.25,10443,2457.176471,14.609545,103.081686
T955,บุรีรัมย์,Buri Ram,31,ประโคนชัย,เทศบาลตำบลทุ่งกุลา,36.45,5995,164.4718793,14.7869535,103.0472164
T956,บุรีรัมย์,Buri Ram,31,ประโคนชัย,เทศบาลตำบลทุ่งข้าวพวง,38.25,7306,191.0065359,14.6296078,103.0594031
T957,บุรีรัมย์,Buri Ram,31,ประโคนชัย,เทศบาลตำบลทุ่งคลี,94.01,9937,105.7015211,14.4743043,103.0655038
T958,บุรีรัมย์,Buri Ram,31,ปะคำ,เทศบาลตำบลทุ่งควายกิน,61.79,6982,112.9956304,14.4380279,102.7234376
T959,บุรีรัมย์,Buri Ram,31,พลับพลาชัย,เทศบาลตำบลทุ่งคอก,12.11,6412,529.4797688,14.7252368,103.1587119
T960,บุรีรัมย์,Buri Ram,31,พุทไธสง,เทศบาลตำบลทุ่งงาม,6.9,4453,645.3623188,15.5423949,103.0028809
T961,บุรีรัมย์,Buri Ram,31,ละหานทราย,เทศบาลตำบลทุ่งช้าง,189,15924,84.25396825,14.4180461,102.9431489
T962,บุรีรัมย์,Buri Ram,31,ละหานทราย,เทศบาลตำบลทุ่งต้อม,216,16073,74.41203704,14.2852462,102.9184007
T963,บุรีรัมย์,Buri Ram,31,ละหานทราย,เทศบาลตำบลทุ่งตะไคร,200,12052,60.26,14.380506,102.8348308
T964,บุรีรัมย์,Buri Ram,31,ละหารทราย,เทศบาลตำบลทุ่งทราย,3.94,8632,2190.862944,14.4135365,102.8582489
T965,บุรีรัมย์,Buri Ram,31,ละหารทราย,เทศบาลตำบลทุ่งทอง,41.9,8026,191.5513126,14.3941742,102.7856407
T966,บุรีรัมย์,Buri Ram,31,ลำปลายมาศ,เทศบาลตำบลทุ่งน้อย,8.25,4386,531.6363636,15.0312063,102.916839
T967,บุรีรัมย์,Buri Ram,31,ลำปลายมาศ,เทศบาลตำบลทุ่งผึ้ง,16.47,13632,827.6867031,15.0281466,102.8458197
T968,บุรีรัมย์,Buri Ram,31,สตึก,เทศบาลตำบลทุ่งฝน,18,11182,621.2222222,15.3007853,103.3014395
T969,บุรีรัมย์,Buri Ram,31,สตึก,เทศบาลตำบลทุ่งยั้ง,72,7248,100.6666667,15.300164,103.3564855
T970,บุรีรัมย์,Buri Ram,31,สตึก,เทศบาลตำบลทุ่งยาว,35.51,5534,155.8434244,15.2152306,103.1904108
T971,บุรีรัมย์,Buri Ram,31,สตึก,เทศบาลตำบลทุ่งรวงทอง,95,7442,78.33684211,15.2748171,103.3086662
T972,บุรีรัมย์,Buri Ram,31,หนองกี่,เทศบาลตำบลทุ่งลาน,5.4,10258,1899.62963,14.6850759,102.5413034
T973,บุรีรัมย์,Buri Ram,31,หนองกี่,เทศบาลตำบลทุ่งลุยลาย,12.8,3307,258.359375,14.6700358,102.5452816
T974,บุรีรัมย์,Buri Ram,31,หนองกี่,เทศบาลตำบลทุ่งศรีชุมพล,74.5,10482,140.6979866,14.587581,102.494708
T975,บุรีรัมย์,Buri Ram,31,หนองหงส์,เทศบาลตำบลทุ่งสะเดา,8.7,4709,541.2643678,14.8488887,102.686544
T976,บุรีรัมย์,Buri Ram,31,หนองหงส์,เทศบาลตำบลทุ่งสะโตก,63,9742,154.6349206,14.8813042,102.6010313
T977,บุรีรัมย์,Buri Ram,31,ห้วยราช,เทศบาลตำบลทุ่งสัง,18,5177,287.6111111,14.9735226,103.186405
T978,บุรีรัมย์,Buri Ram,31,ห้วยราช,เทศบาลตำบลทุ่งหลวง,24.83,6312,254.2086186,15.026636,103.2053253
T979,บุรีรัมย์,Buri Ram,31,ห้วยราช,เทศบาลตำบลทุ่งหลวง,17,4301,253,14.9976861,103.201075
T980,บึงกาฬ,Bueng Kan,38,โซ่พิสัย,เทศบาลตำบลทุ่งหลวง,8.84,6772,766.0633484,18.0763079,103.4404737
T981,บึงกาฬ,Bueng Kan,38,เซกา,เทศบาลตำบลทุ่งหลวง,10.2,6695,656.372549,17.9432714,103.7780299
T982,บึงกาฬ,Bueng Kan,38,เซกา,เทศบาลตำบลทุ่งหลวง,6.1,7003,1148.032787,17.9281827,103.9424121
T983,บึงกาฬ,Bueng Kan,38,เซกา,เทศบาลตำบลทุ่งหว้า,137.73,8604,62.4700501,17.8431593,103.9365863
T984,บึงกาฬ,Bueng Kan,38,บึงโขงหลง,เทศบาลตำบลทุ่งหัวช้าง,9.6,9792,1020,18.0816771,104.0719636
T985,บึงกาฬ,Bueng Kan,38,บึงโขงหลง,เทศบาลตำบลธงธานี,107.61,5377,49.96747514,17.9620188,104.0423931
T986,บึงกาฬ,Bueng Kan,38,เมืองบึงกาฬ,เทศบาลตำบลธรรมศาลา,1.18,4753,4027.966102,18.326944,103.6883765
T987,บึงกาฬ,Bueng Kan,38,เมืองบึงกาฬ,เทศบาลตำบลธรรมามูล,68.33,6950,101.7122786,18.3733688,103.6310172
T988,บึงกาฬ,Bueng Kan,38,เมืองบึงกาฬ,เทศบาลตำบลธัญญา,66.8,6723,100.6437126,18.3638357,103.4813612
T989,บึงกาฬ,Bueng Kan,38,เมืองบึงกาฬ,เทศบาลตำบลธัญบุรี,40.04,7091,177.0979021,18.4340051,103.4348833
T990,บึงกาฬ,Bueng Kan,38,เมืองบึงกาฬ,เทศบาลตำบลธาตุ,59,6854,116.1694915,18.3126149,103.8000068
T991,บึงกาฬ,Bueng Kan,38,เมืองบึงกาฬ,เทศบาลตำบลธาตุ,59.04,5275,89.34620596,18.4114036,103.5187545
T992,บึงกาฬ,Bueng Kan,38,เมืองบึงกาฬ,เทศบาลตำบลธาตุทอง,53.7,8513,158.5288641,18.3478186,103.3981011
T993,บึงกาฬ,Bueng Kan,38,ปากคาด,เทศบาลตำบลธาตุทอง,4.1,7117,1735.853659,18.2981072,103.3054448
T994,บึงกาฬ,Bueng Kan,38,พรเจริญ,เทศบาลตำบลธาตุนาเวง,29.25,5032,172.034188,18.053063,103.6120461
T995,บึงกาฬ,Bueng Kan,38,พรเจริญ,เทศบาลตำบลธาตุพนม,10,10273,1027.3,18.0249381,103.7063169
T996,บึงกาฬ,Bueng Kan,38,พรเจริญ,เทศบาลตำบลธาตุพนมใต้,87.01,4637,53.29272497,18.101472,103.631546
T997,บึงกาฬ,Bueng Kan,38,ศรีวิไล,เทศบาลตำบลธารเกษม,7.7,10948,1421.818182,18.1865528,103.7408375
